City_ID,City,Lat,Lng,Max Temp,Humidity,Cloudiness,Wind Speed,Country,Date
0,alta floresta,-9.8756,-56.0861,300.42,75,77,0.75,BR,1674413775
1,port alfred,-33.5906,26.891,294.36,95,100,0.9,ZA,1674413775
2,tautira,-17.7333,-149.15,299.59,73,100,4.79,PF,1674413776
3,talnakh,69.4865,88.3972,249.61,81,98,2.11,RU,1674413776
4,mataura,-46.1927,168.8643,283.2,66,71,1.18,NZ,1674413777
5,albany,42.6001,-73.9662,274.79,74,100,0.45,US,1674413729
6,acapulco,16.8634,-99.8901,304.05,42,0,2.57,MX,1674413612
7,hermanus,-34.4187,19.2345,295.26,70,44,6.1,ZA,1674413655
8,lokosovo,61.1333,74.8167,263.95,96,99,2.6,RU,1674413778
9,salamanca,40.8333,-6.0,274.03,56,91,3.36,ES,1674413778
10,nanortalik,60.1432,-45.2371,266.38,60,3,2.48,GL,1674413779
11,cap malheureux,-19.9842,57.6142,298.97,79,100,4.15,MU,1674413779
12,qaanaaq,77.484,-69.3632,241.12,77,99,2.63,GL,1674413780
13,yellowknife,62.456,-114.3525,257.44,85,75,3.09,CA,1674413761
14,punta arenas,-53.15,-70.9167,289.21,31,0,6.69,CL,1674413781
15,rikitea,-23.1203,-134.9692,299.51,75,0,7.6,PF,1674413781
16,busselton,-33.65,115.3333,291.15,86,0,4.19,AU,1674413782
17,pryozerne,45.2698,36.3303,277.62,85,13,4.1,UA,1674413782
18,evensk,61.95,159.2333,257.11,88,100,9.67,RU,1674413783
19,luderitz,-26.6481,15.1594,293.23,79,0,10.12,NA,1674413783
20,redmond,47.674,-122.1215,278.9,92,100,0.98,US,1674413711
21,ushuaia,-54.8,-68.3,286.96,38,0,4.63,AR,1674413519
22,mingguang,32.7802,117.9638,276.67,91,54,1.87,CN,1674413784
23,kapaa,22.0752,-159.319,295.33,93,75,0.89,US,1674413784
24,jambi,-1.6,103.6167,296.21,97,96,1.25,ID,1674413785
25,launceston,-41.45,147.1667,286.01,89,1,1.54,AU,1674413785
26,saskylakh,71.9167,114.0833,238.52,86,100,1.21,RU,1674413786
27,sinnai,39.3042,9.2036,278.41,76,0,2.57,IT,1674413786
28,atuona,-9.8,-139.0333,299.18,78,76,10.32,PF,1674413787
29,nikolskoye,59.7035,30.7861,269.09,97,72,1.7,RU,1674413787
30,hobart,-42.8794,147.3294,287.62,91,11,0.0,AU,1674413491
31,klaksvik,62.2266,-6.589,279.66,66,98,10.52,FO,1674413788
32,cape town,-33.9258,18.4232,294.75,67,20,9.26,ZA,1674413789
33,cabo san lucas,22.8909,-109.9124,297.38,65,0,1.34,MX,1674413789
34,kanniyakumari,8.0833,77.5667,298.04,79,100,9.4,IN,1674413790
35,mombetsu,44.3525,143.3525,262.57,82,96,3.63,JP,1674413790
36,mahebourg,-20.4081,57.7,299.31,83,75,1.54,MU,1674413791
37,la spezia,44.1105,9.8434,281.52,52,100,5.36,IT,1674413673
38,faanui,-16.4833,-151.75,299.75,73,99,3.4,PF,1674413791
39,gizeh,30.0081,31.2109,290.56,55,100,5.69,EG,1674413792
40,norsup,-16.0667,167.3833,299.78,80,100,1.23,VU,1674413792
41,daru,-9.0763,143.2092,298.83,89,100,2.82,PG,1674413793
42,fremont,37.5483,-121.9886,286.06,68,20,3.13,US,1674413793
43,port elizabeth,-33.918,25.5701,295.43,96,100,1.54,ZA,1674413794
44,labuhan,-6.8844,112.2051,298.07,87,100,2.61,ID,1674413794
45,mar del plata,-38.0023,-57.5575,301.16,60,20,7.6,AR,1674413795
46,birjand,32.8663,59.2211,271.41,43,0,4.12,IR,1674413795
47,arraial do cabo,-22.9661,-42.0278,304.13,61,20,3.6,BR,1674413795
48,thompson,55.7435,-97.8558,263.24,92,100,2.06,CA,1674413796
49,portland,45.5234,-122.6762,279.23,90,75,2.68,US,1674413323
50,ilulissat,69.2167,-51.1,258.13,92,100,1.89,GL,1674413797
51,cherskiy,68.75,161.3,236.42,94,100,1.46,RU,1674413797
52,petatlan,17.5167,-101.2667,302.77,45,0,3.28,MX,1674413798
53,codrington,-38.2667,141.9667,288.58,95,57,3.54,AU,1674413798
54,cidreira,-30.1811,-50.2056,301.03,65,4,5.19,BR,1674413799
55,lompoc,34.6391,-120.4579,289.0,53,100,4.47,US,1674413799
56,tapejara,-28.0681,-52.0139,301.36,42,34,2.78,BR,1674413799
57,bredasdorp,-34.5322,20.0403,292.88,72,9,3.65,ZA,1674413800
58,georgetown,5.4112,100.3354,298.14,89,20,2.68,MY,1674413769
59,castro,-24.7911,-50.0119,292.84,92,100,2.47,BR,1674413800
60,puerto ayora,-0.7393,-90.3518,301.13,90,90,3.13,EC,1674413801
61,faya,18.3851,42.4509,286.44,63,1,1.03,SA,1674413801
62,keila,59.3036,24.4131,268.5,100,100,2.57,EE,1674413802
63,jamestown,42.097,-79.2353,274.27,61,100,2.06,US,1674413529
64,bluff,-46.6,168.3333,284.9,57,41,3.64,NZ,1674413802
65,hilo,19.7297,-155.09,299.42,81,0,1.79,US,1674413660
66,mitsamiouli,-11.3847,43.2844,300.02,81,100,5.71,KM,1674413803
67,bengkulu,-3.8004,102.2655,296.18,95,100,1.93,ID,1674413803
68,mugan,35.9404,101.3842,262.31,47,0,1.96,CN,1674413804
69,chichimila,20.6167,-88.2167,305.18,31,3,3.65,MX,1674413804
70,east london,-33.0153,27.9116,295.67,94,100,3.6,ZA,1674413805
71,ndele,8.4109,20.6473,300.34,17,100,2.16,CF,1674413805
72,kruisfontein,-34.0033,24.7314,294.2,89,0,1.06,ZA,1674413806
73,kodiak,57.79,-152.4072,275.88,93,100,10.8,US,1674413806
74,payakumbuh,-0.2202,100.6308,293.51,98,96,1.04,ID,1674413807
75,swinoujscie,53.9105,14.2471,275.23,87,100,2.57,PL,1674413807
76,mount gambier,-37.8333,140.7667,286.78,97,53,2.72,AU,1674413807
77,geraldton,-28.7667,114.6,294.38,83,100,5.66,AU,1674413735
78,vaini,-21.2,-175.2,296.24,94,20,1.03,TO,1674413808
79,quatre cocos,-20.2078,57.7625,299.21,81,100,2.9,MU,1674413710
80,smolenskaya,44.7887,38.8018,274.13,82,93,1.25,RU,1674413809
81,zhezkazgan,47.8043,67.7144,252.63,89,4,2.27,KZ,1674413809
82,aswan,24.0934,32.907,294.76,26,0,4.12,EG,1674413657
83,asau,46.4333,26.4,277.75,95,100,0.95,RO,1674413810
84,qaqortoq,60.7167,-46.0333,261.91,64,0,4.2,GL,1674413810
85,butaritari,3.0707,172.7902,300.16,75,91,6.71,KI,1674413811
86,cabittaogan,17.5828,120.3656,297.32,78,25,1.55,PH,1674413811
87,el sauzal,31.9,-116.6833,287.83,56,11,2.81,MX,1674413811
88,mabayo,14.7318,120.2781,297.18,78,40,0.51,PH,1674413812
89,brae,60.3964,-1.353,281.65,93,100,7.56,GB,1674413812
90,longyearbyen,78.2186,15.6401,272.06,80,40,7.72,SJ,1674413813
91,xam nua,20.4197,104.0439,285.15,66,2,1.01,LA,1674413813
92,bosaso,11.2842,49.1816,297.17,66,62,5.21,SO,1674413813
93,gamba,-2.65,10.0,299.3,81,100,2.24,GA,1674413662
94,komsomolskiy,40.4272,71.7189,268.55,80,79,2.06,UZ,1674413814
95,barrow,71.2906,-156.7887,253.83,96,100,5.77,US,1674413815
96,bambanglipuro,-7.95,110.2833,297.74,89,100,2.83,ID,1674413815
97,kahului,20.8947,-156.47,298.06,84,11,7.15,US,1674413774
98,esperance,-33.8667,121.9,290.02,71,13,5.64,AU,1674413816
99,upernavik,72.7868,-56.1549,242.27,66,82,3.65,GL,1674413816
100,isangel,-19.55,169.2667,299.81,82,99,1.42,VU,1674413568
101,merauke,-8.4667,140.3333,298.15,92,100,3.94,ID,1674413817
102,brigantine,39.4101,-74.3646,279.27,77,100,1.79,US,1674413818
103,chicama,-7.8447,-79.1469,295.45,54,54,5.17,PE,1674413818
104,goma,-1.6792,29.2228,290.48,72,98,1.69,CD,1674413819
105,ostrovnoy,68.0531,39.5131,270.88,87,100,9.07,RU,1674413819
106,san patricio,28.017,-97.5169,293.66,23,0,5.02,US,1674413820
107,lagoa,39.05,-27.9833,288.6,70,100,8.38,PT,1674413820
108,constitucion,-35.3333,-72.4167,295.89,56,7,7.14,CL,1674413820
109,clyde river,70.4692,-68.5914,240.28,68,100,11.83,CA,1674413821
110,xuddur,4.1213,43.8894,300.29,45,32,6.79,SO,1674413821
111,huarmey,-10.0681,-78.1522,297.23,73,53,4.21,PE,1674413822
112,adeje,28.1227,-16.726,291.66,66,40,6.69,ES,1674413822
113,kamenka,51.3223,42.7678,268.29,86,100,4.78,RU,1674413823
114,gravdal,68.1214,13.5031,277.2,88,100,19.18,NO,1674413823
115,the valley,18.217,-63.0578,301.07,65,20,7.2,AI,1674413824
116,pisco,-13.7,-76.2167,298.16,73,0,4.63,PE,1674413707
117,provideniya,64.3833,-173.3,247.29,89,52,6.91,RU,1674413825
118,san quintin,30.4833,-115.95,288.45,47,0,4.25,MX,1674413825
119,vila velha,-20.3297,-40.2925,301.12,78,75,4.12,BR,1674413825
120,fonte boa,-2.4959,-66.2662,303.37,61,27,2.1,BR,1674413826
121,yabrud,33.9674,36.6574,278.62,77,0,1.19,SY,1674413826
122,pevek,69.7008,170.3133,236.1,98,100,1.47,RU,1674413827
123,khatanga,71.9667,102.5,233.68,89,17,1.37,RU,1674413827
124,kudahuvadhoo,2.6708,72.8944,299.69,78,99,6.33,MV,1674413828
125,nemuro,43.3236,145.575,265.27,65,14,8.64,JP,1674413828
126,bardiyah,31.7561,25.0865,288.78,66,0,4.54,LY,1674413829
127,san cristobal,7.7669,-72.225,299.25,41,97,3.23,VE,1674413829
128,christchurch,-43.5333,172.6333,287.01,86,100,2.06,NZ,1674413602
129,korla,41.7597,86.1469,261.85,66,2,3.84,CN,1674413830
130,bambous virieux,-20.3428,57.7575,299.29,83,75,1.54,MU,1674413831
131,norman wells,65.282,-126.8329,254.17,84,100,0.0,CA,1674413831
132,bonthe,7.5264,-12.505,299.37,68,19,4.85,SL,1674413831
133,manzil salim,35.8567,8.4765,275.66,91,99,5.69,TN,1674413832
134,elko,41.0002,-115.5012,268.18,75,57,1.34,US,1674413832
135,saint-philippe,-21.3585,55.7679,297.92,84,100,3.76,RE,1674413833
136,stanger,-29.3282,31.2895,298.09,93,3,1.4,ZA,1674413833
137,melilla,35.2937,-2.9383,283.36,57,0,0.0,ES,1674413834
138,russell,32.3502,-85.1999,285.75,93,100,1.54,US,1674413834
139,batticaloa,7.7102,81.6924,297.6,86,100,3.39,LK,1674413835
140,yulara,-25.2406,130.9889,299.98,39,5,3.14,AU,1674413835
141,shieli,44.1667,66.75,267.49,53,0,8.1,KZ,1674413836
142,nabire,-3.3667,135.4833,296.51,93,100,1.44,ID,1674413836
143,yaan,7.3833,8.5667,304.03,13,100,1.43,NG,1674413837
144,kaitangata,-46.2817,169.8464,283.21,68,10,2.96,NZ,1674413837
145,buin,-33.7333,-70.75,306.17,16,0,4.57,CL,1674413838
146,umm lajj,25.0213,37.2685,295.32,59,0,4.19,SA,1674413838
147,fairbanks,64.8378,-147.7164,236.06,98,37,1.14,US,1674413737
148,yelizovo,53.1873,158.3805,252.23,65,75,3.0,RU,1674413839
149,zhanaozen,43.3,52.8,271.89,78,1,6.45,KZ,1674413839
150,goure,13.9835,10.2704,296.72,10,4,3.93,NE,1674413840
151,cockburn town,21.4612,-71.1419,298.5,75,5,8.75,TC,1674413586
152,vao,-22.6667,167.4833,299.04,86,100,9.64,NC,1674413840
153,new norfolk,-42.7826,147.0587,287.43,73,33,0.95,AU,1674413841
154,dudinka,69.4058,86.1778,246.67,97,41,3.29,RU,1674413841
155,ribeira grande,38.5167,-28.7,289.69,82,20,8.05,PT,1674413842
156,chitral,35.8462,71.7858,272.68,96,100,0.11,PK,1674413842
157,santiago del estero,-27.7951,-64.2615,309.06,33,65,2.93,AR,1674413805
158,gudalur,9.6833,77.2667,292.51,92,100,0.99,IN,1674413843
159,margate,51.3813,1.3862,278.54,74,35,1.34,GB,1674413676
160,baruun-urt,46.6806,113.2792,240.34,97,24,2.27,MN,1674413843
161,ocampo,21.65,-101.5,292.42,21,0,6.34,MX,1674413844
162,qalyub,30.1792,31.2056,290.59,63,99,4.5,EG,1674413845
163,tezu,27.9167,96.1667,286.9,38,0,1.89,IN,1674413845
164,tuktoyaktuk,69.4541,-133.0374,258.15,85,100,1.03,CA,1674413846
165,oistins,13.0667,-59.5333,301.2,69,40,9.26,BB,1674413846
166,yelan-kolenovskiy,51.1632,41.151,269.21,84,99,5.27,RU,1674413846
167,havoysund,70.9963,24.6622,277.28,80,98,4.71,NO,1674413847
168,avarua,-21.2078,-159.775,300.18,78,75,1.03,CK,1674413847
169,ambon,-3.6954,128.1814,298.28,16,40,1.54,ID,1674413848
170,santa rosalia,27.3167,-112.2833,289.72,32,0,3.08,MX,1674413848
171,saldanha,-33.0117,17.9442,293.18,82,0,8.31,ZA,1674413849
172,atikokan,48.7555,-91.6216,267.35,90,100,1.62,CA,1674413849
173,carnarvon,-24.8667,113.6333,296.95,78,0,9.1,AU,1674413850
174,gat,31.61,34.7642,290.04,100,0,1.81,IL,1674413850
175,aurillac,44.9167,2.45,269.64,86,100,3.6,FR,1674413851
176,loukhi,66.0764,33.0381,267.06,84,39,4.37,RU,1674413851
177,zemio,5.0314,25.1361,298.22,25,90,0.78,CF,1674413852
178,kavieng,-2.5744,150.7967,300.68,76,100,4.64,PG,1674413852
179,mizdah,31.4451,12.9801,282.56,68,7,4.65,LY,1674413852
180,volksrust,-27.3654,29.8818,288.56,52,7,2.98,ZA,1674413853
181,yuncheng,35.0231,110.9928,272.35,53,100,1.21,CN,1674413853
182,tynda,55.1667,124.7167,234.97,95,100,1.74,RU,1674413854
183,mollendo,-17.0231,-72.0147,296.84,72,8,3.45,PE,1674413854
184,victoria,22.2855,114.1577,292.18,90,22,1.79,HK,1674413729
185,bathsheba,13.2167,-59.5167,301.49,69,40,9.26,BB,1674413855
186,hailey,43.5196,-114.3153,263.59,79,75,2.06,US,1674413855
187,fort nelson,58.8053,-122.7002,263.92,92,20,0.0,CA,1674413856
188,lugovoy,42.9472,72.7644,260.97,83,10,1.85,KZ,1674413856
189,seoul,37.5683,126.9778,271.84,84,75,1.03,KR,1674413652
190,kirakira,-10.4544,161.9205,299.38,83,100,1.25,SB,1674413857
191,general roca,-39.0333,-67.5833,305.72,17,5,3.9,AR,1674413857
192,kaeo,-35.1,173.7833,290.0,96,32,2.17,NZ,1674413858
193,torbay,47.6666,-52.7314,271.8,94,75,9.26,CA,1674413858
194,opuwo,-18.0607,13.84,295.82,58,99,3.02,NA,1674413859
195,vardo,70.3705,31.1107,272.14,86,0,9.77,NO,1674413859
196,chuy,-33.6971,-53.4616,299.95,53,56,7.18,UY,1674413860
197,birnin kebbi,12.4539,4.1975,301.28,15,26,3.14,NG,1674413860
198,los llanos de aridane,28.6585,-17.9182,289.89,87,100,6.69,ES,1674413861
199,jiazi,22.8779,116.067,290.38,89,51,3.71,CN,1674413861
200,paro,27.4305,89.4133,275.4,75,12,1.74,BT,1674413862
201,archidona,37.0965,-4.3887,281.15,47,0,2.51,ES,1674413862
202,tiksi,71.6872,128.8694,244.99,89,100,1.69,RU,1674413862
203,viransehir,37.2353,39.7631,281.49,50,0,1.88,TR,1674413863
204,okha,53.5739,142.9478,243.74,91,85,8.29,RU,1674413863
205,karaj,35.8355,51.0103,274.44,80,2,4.12,IR,1674413864
206,manggar,-2.8833,108.2667,298.5,86,100,2.68,ID,1674413864
207,ngunguru,-35.6167,174.5,290.26,90,31,3.11,NZ,1674413864
208,killybegs,54.6333,-8.45,281.99,90,99,2.64,IE,1674413865
209,waingapu,-9.6567,120.2641,297.48,79,98,1.81,ID,1674413865
210,kamphaeng phet,16.25,99.5,294.3,44,100,1.65,TH,1674413866
211,portsmouth,50.799,-1.0913,273.94,84,84,1.59,GB,1674413751
212,bubaque,11.2833,-15.8333,297.0,68,3,7.53,GW,1674413866
213,khombole,14.7667,-16.7,297.6,44,0,5.75,SN,1674413867
214,gigmoto,13.7796,124.39,297.62,90,99,5.45,PH,1674413867
215,sagana,-0.6667,37.2,290.39,80,100,1.9,KE,1674413868
216,hami,42.8,93.45,260.64,33,0,4.86,CN,1674413868
217,katsuura,35.1333,140.3,280.09,82,100,6.48,JP,1674413869
218,zhigansk,66.7697,123.3711,235.21,95,100,2.81,RU,1674413869
219,dikson,73.5069,80.5464,251.47,95,100,12.41,RU,1674413870
220,sur,22.5667,59.5289,292.02,61,38,5.43,OM,1674413870
221,koslan,63.4564,48.8989,259.52,99,100,2.04,RU,1674413871
222,tual,-5.6667,132.75,300.34,80,100,7.25,ID,1674413871
223,krasnoselkup,65.7,82.4667,252.27,97,100,5.09,RU,1674413872
224,lavrentiya,65.5833,-171.0,243.18,93,41,4.29,RU,1674413872
225,klyuchi,52.2667,79.1667,261.66,88,100,6.84,RU,1674413873
226,pagudpud,18.5616,120.7868,297.06,81,100,1.66,PH,1674413873
227,werda,-25.2667,23.2833,304.02,21,55,3.51,BW,1674413873
228,aksu,41.1231,80.2644,258.85,84,5,3.14,CN,1674413874
229,banjar,-8.19,114.9675,297.6,92,100,1.19,ID,1674413874
230,boma,7.0805,-2.1697,304.04,28,100,0.44,GH,1674413875
231,touros,-5.1989,-35.4608,301.54,67,17,5.35,BR,1674413875
232,warmbad,-28.45,18.7333,303.33,25,6,8.93,NA,1674413876
233,bethel,41.3712,-73.414,278.35,65,100,1.34,US,1674413876
234,bagdarin,54.4333,113.6,241.79,82,100,1.87,RU,1674413876
235,yamada,39.4667,141.95,271.02,59,10,1.68,JP,1674413877
236,tasiilaq,65.6145,-37.6368,258.01,51,51,4.07,GL,1674413877
237,airai,-8.9266,125.4092,288.89,93,100,0.48,TL,1674413878
238,roald,62.5833,6.1333,280.23,57,0,9.26,NO,1674413878
239,nikolayevsk-na-amure,53.1406,140.73,239.06,97,79,1.98,RU,1674413879
240,derzhavinsk,51.1,66.3167,258.49,79,82,4.1,KZ,1674413879
241,marsh harbour,26.5412,-77.0636,298.25,76,77,8.69,BS,1674413879
242,port-cartier,50.0334,-66.8654,267.45,81,100,3.25,CA,1674413880
243,muriwai beach,-36.8167,174.45,292.27,97,32,3.39,NZ,1674413880
244,aleksandrov gay,50.147,48.5704,267.7,68,17,3.56,RU,1674413881
245,ahipara,-35.1667,173.1667,290.99,89,21,2.68,NZ,1674413881
246,sitka,57.0531,-135.33,275.65,93,100,2.99,US,1674413882
247,nouakchott,18.0858,-15.9785,297.11,65,0,6.19,MR,1674413611
248,prince george,53.9166,-122.753,268.49,85,0,4.63,CA,1674413848
249,key west,24.5557,-81.7826,301.15,72,20,7.72,US,1674413392
250,nome,64.5011,-165.4064,242.85,91,14,3.19,US,1674413883
251,araouane,18.9048,-3.5265,296.18,11,0,4.29,ML,1674413884
252,ternate,0.8,127.4,299.15,84,100,2.36,ID,1674413884
253,challapata,-18.9,-66.7667,292.66,22,100,7.25,BO,1674413885
254,zlatograd,41.3833,25.1,282.06,91,11,0.62,BG,1674413885
255,ancud,-41.8697,-73.8203,290.75,73,26,4.0,CL,1674413885
256,ambilobe,-13.2,49.05,296.33,95,100,2.15,MG,1674413663
257,djibo,14.1022,-1.6306,301.83,11,39,3.39,BF,1674413886
258,roma,43.2128,-75.4557,275.83,82,100,0.89,US,1674413671
259,lloydminster,53.2835,-110.0016,275.27,69,75,8.75,CA,1674413627
260,bayangol,50.6977,103.4656,233.66,95,12,1.36,RU,1674413887
261,mutoko,-17.397,32.2268,291.25,92,100,1.53,ZW,1674413888
262,san policarpo,12.1791,125.5072,299.31,83,96,6.95,PH,1674413888
263,nioro,13.35,-15.75,301.31,22,2,3.16,GM,1674413889
264,mantua,45.1667,10.7833,279.46,78,100,0.89,IT,1674413889
265,grindavik,63.8424,-22.4338,274.41,60,75,17.49,IS,1674413890
266,bairiki,1.3292,172.9752,300.15,83,20,4.12,KI,1674413891
267,mayo,38.8876,-76.5119,278.99,82,100,2.57,US,1674413891
268,bitam,2.076,11.5007,297.33,72,100,2.48,GA,1674413892
269,ust-maya,60.4167,134.5333,228.4,98,100,0.33,RU,1674413892
270,springbok,-29.6643,17.8865,294.28,54,2,2.72,ZA,1674413893
271,souillac,-20.5167,57.5167,299.36,83,75,1.54,MU,1674413893
272,lebyazhye,55.2689,66.4947,265.33,85,100,5.98,RU,1674413894
273,severo-kurilsk,50.6789,156.125,261.93,64,38,2.24,RU,1674413638
274,aklavik,68.2191,-135.0107,255.15,78,100,4.12,CA,1674413895
275,arman,59.7,150.1667,246.56,82,29,4.27,RU,1674413896
276,liwale,-9.7667,37.9333,294.25,96,100,0.97,TZ,1674413896
277,san miguel,13.4833,-88.1833,307.81,25,24,1.61,SV,1674413897
278,sao filipe,14.8961,-24.4956,294.17,65,14,6.93,CV,1674413897
279,ugoofaaru,5.6667,73.0,299.88,71,100,4.21,MV,1674413898
280,imeni zhelyabova,58.9544,36.5956,257.81,99,76,1.7,RU,1674413898
281,kenai,60.5544,-151.2583,267.2,73,75,3.09,US,1674413697
282,shimoda,34.6667,138.95,278.76,68,100,4.16,JP,1674413899
283,biak,-0.9131,122.8766,297.37,83,100,1.75,ID,1674413899
284,tomino,41.9877,-8.755,283.81,70,19,2.03,ES,1674413900
285,bandar,2.05,99.75,295.72,98,100,1.12,ID,1674413900
286,narsaq,60.9167,-46.05,260.72,65,1,4.09,GL,1674413901
287,naze,28.3667,129.4833,291.66,83,48,7.63,JP,1674413902
288,hithadhoo,-0.6,73.0833,300.46,76,18,5.36,MV,1674413902
289,kuytun,54.3419,101.5036,229.49,100,55,1.75,RU,1674413902
290,doha,25.2867,51.5333,293.09,72,20,2.57,QA,1674413903
291,namatanai,-3.6667,152.4333,298.9,82,100,3.01,PG,1674413904
292,vila franca do campo,37.7167,-25.4333,287.38,87,93,4.29,PT,1674413904
293,wattegama,6.7989,81.4808,294.81,94,100,2.0,LK,1674413905
294,prince rupert,54.3161,-130.3201,276.98,86,100,10.8,CA,1674413905
295,graaff-reinet,-32.2522,24.5308,293.11,93,100,1.09,ZA,1674413615
296,teahupoo,-17.8333,-149.2667,295.13,72,100,4.75,PF,1674413906
297,rio branco,-9.9747,-67.81,302.49,74,40,5.14,BR,1674413907
298,nuuk,64.1835,-51.7216,270.45,91,100,17.32,GL,1674413907
299,makarska,43.2969,17.0178,281.59,74,100,4.78,HR,1674413908
300,goundam,16.4145,-3.6708,299.88,10,3,3.84,ML,1674413662
301,pangody,65.85,74.4859,256.64,97,100,1.23,RU,1674413908
302,toritama,-8.0067,-36.0567,306.42,33,65,5.87,BR,1674413909
303,broome,42.2506,-75.833,275.76,78,100,3.13,US,1674413909
304,chokurdakh,70.6333,147.9167,231.36,99,67,2.88,RU,1674413910
305,iqaluit,63.7506,-68.5145,259.0,92,75,1.54,CA,1674413910
306,zastron,-30.3023,27.084,293.61,57,63,4.72,ZA,1674413911
307,lebu,-37.6167,-73.65,291.95,74,3,6.2,CL,1674413911
308,college,64.8569,-147.8028,236.55,98,33,1.27,US,1674413912
309,manokwari,-0.8667,134.0833,298.05,86,100,1.55,ID,1674413912
310,reinosa,42.9996,-4.138,271.74,96,97,2.92,ES,1674413913
311,porto novo,6.4965,2.6036,302.05,75,100,4.33,BJ,1674413913
312,melito di porto salvo,37.9222,15.7714,282.15,87,100,4.12,IT,1674413913
313,sisimiut,66.9395,-53.6735,267.55,95,100,9.52,GL,1674413914
314,silleda,42.696,-8.2465,277.92,67,92,1.2,ES,1674413914
315,gadung,6.8025,124.02,297.76,82,100,3.23,PH,1674413915
316,malinovoye ozero,51.6753,79.7825,258.75,76,96,5.67,RU,1674413915
317,roros,62.5747,11.3842,252.06,84,0,1.03,NO,1674413916
318,mangrol,21.1167,70.1167,290.23,43,1,5.95,IN,1674413916
319,kindu,-2.95,25.95,295.47,83,38,0.73,CD,1674413916
320,noumea,-22.2763,166.4572,300.93,99,85,1.86,NC,1674413917
321,changji,44.0167,87.3167,254.59,84,0,1.0,CN,1674413917
322,jaguaruana,-4.8339,-37.7811,303.98,53,22,5.49,BR,1674413918
323,puerto madryn,-42.7692,-65.0385,294.25,56,24,8.06,AR,1674413918
324,lensk,60.7253,114.9278,237.9,90,100,5.57,RU,1674413919
325,mokhsogollokh,61.4681,128.9203,231.54,98,99,1.78,RU,1674413919
326,sheregesh,52.9209,87.9869,251.33,94,100,1.67,RU,1674413919
327,kpandae,8.4689,-0.0113,307.07,22,38,2.47,GH,1674413920
328,thinadhoo,0.5333,72.9333,300.38,75,30,6.24,MV,1674413642
329,mildura,-34.2,142.15,294.14,52,0,4.18,AU,1674413921
330,saint george,37.1041,-113.5841,273.48,64,0,1.54,US,1674413686
331,ojinaga,29.5667,-104.4167,287.91,30,0,3.09,MX,1674413921
332,pacific grove,36.6177,-121.9166,286.49,76,93,4.02,US,1674413922
333,hasaki,35.7333,140.8333,277.37,73,100,6.2,JP,1674413922
334,zonguldak,41.25,31.8333,280.27,67,97,1.33,TR,1674413923
335,poum,-20.2333,164.0167,299.71,79,100,2.94,NC,1674413923
336,aquiraz,-3.9014,-38.3911,303.2,71,22,3.83,BR,1674413924
337,san pedro,14.35,121.0167,298.72,83,20,1.03,PH,1674413924
338,porto murtinho,-21.6989,-57.8825,310.38,32,86,4.07,BR,1674413925
339,bolitoc,15.7395,119.8769,297.88,76,97,1.46,PH,1674413925
340,ozu,33.5,132.55,277.69,97,100,3.65,JP,1674413926
341,guerrero negro,27.9769,-114.0611,289.91,37,0,4.38,MX,1674413926
342,qeshm,26.9581,56.2719,290.09,40,7,9.31,IR,1674413926
343,lewiston,44.1003,-70.2148,271.99,82,100,3.22,US,1674413927
344,paddhari,22.4333,70.6,288.58,37,0,3.22,IN,1674413927
345,havelock,34.8791,-76.9013,288.14,88,100,2.24,US,1674413927
346,vestmannaeyjar,63.4427,-20.2734,275.7,60,75,16.46,IS,1674413928
347,finnsnes,69.2296,17.9811,278.49,86,47,1.83,NO,1674413928
348,qandala,11.472,49.8728,296.84,67,36,4.51,SO,1674413929
349,muncar,-8.4333,114.3333,295.85,90,98,1.38,ID,1674413930
350,meulaboh,4.1363,96.1285,296.64,92,100,1.66,ID,1674413930
351,ballina,-28.8667,153.5667,291.92,99,82,0.75,AU,1674413930
352,stornoway,58.2093,-6.3865,281.13,94,75,0.51,GB,1674413931
353,chuzhou,32.3219,118.2978,278.16,92,100,2.16,CN,1674413932
354,algete,40.5971,-3.4974,278.96,53,0,9.77,ES,1674413932
355,vieux-habitants,16.0589,-61.7659,300.91,69,22,6.18,GP,1674413932
356,salekhard,66.53,66.6019,261.85,87,19,3.89,RU,1674413933
357,jiayuguan,39.8167,98.3,257.23,53,93,2.41,CN,1674413933
358,salmas,38.1973,44.7653,272.03,63,100,0.47,IR,1674413934
359,fortuna,40.5982,-124.1573,283.14,69,0,6.69,US,1674413794
360,huilong,31.8111,121.655,279.78,94,100,4.42,CN,1674413934
361,paamiut,61.994,-49.6678,268.2,82,100,7.0,GL,1674413935
362,la ronge,55.1001,-105.2842,273.29,86,75,6.17,CA,1674413935
363,itarema,-2.9248,-39.9167,301.87,65,21,5.6,BR,1674413935
364,banff,51.1762,-115.5698,269.72,74,78,2.06,CA,1674413765
365,orbetello,42.4408,11.2196,278.08,85,18,3.15,IT,1674413936
366,abu zabad,12.35,29.25,295.57,11,70,5.78,SD,1674413936
367,minuri,16.535,121.8574,293.85,96,89,0.69,PH,1674413937
368,pringsewu,-5.3582,104.9744,295.63,97,96,0.96,ID,1674413937
369,liuzhou,24.3126,109.3892,283.26,76,100,2.81,CN,1674413938
370,tuytepa,41.0321,69.3625,263.34,92,17,1.28,UZ,1674413938
371,pangnirtung,66.1451,-65.7125,253.15,77,100,2.57,CA,1674413939
372,rudnogorsk,57.2639,103.7519,230.38,99,39,1.21,RU,1674413939
373,chunskiy,56.0815,99.6342,229.15,100,57,1.61,RU,1674413940
374,young,-32.6833,-57.6333,310.08,16,0,5.68,UY,1674413940
375,ifanadiana,-21.3,47.6333,294.24,99,100,2.43,MG,1674413940
376,karasjok,69.4719,25.5112,266.79,94,91,3.83,NO,1674413941
377,lithakia,37.7167,20.8333,284.8,67,21,9.31,GR,1674413941
378,char bhadrasan,23.3167,90.2167,291.8,40,36,1.69,BD,1674413942
379,puerto quijarro,-17.7833,-57.7667,308.18,37,67,3.1,BO,1674413942
380,bowen,-20.0167,148.2333,298.11,79,71,4.36,AU,1674413943
381,ntchisi,-13.5278,33.9149,288.05,94,100,2.34,MW,1674413943
382,ilave,-16.0833,-69.6667,288.97,30,4,5.1,PE,1674413944
383,iquitos,-3.7481,-73.2472,296.17,88,100,5.14,PE,1674413944
384,hjelset,62.7833,7.4833,282.03,39,75,7.2,NO,1674413945
385,usak,38.5,29.4167,279.63,67,14,1.27,TR,1674413945
386,yatou,37.15,122.3833,274.65,83,74,2.8,CN,1674413946
387,maniitsoq,65.4167,-52.9,270.0,68,100,8.68,GL,1674413946
388,ilheus,-14.7889,-39.0494,303.05,74,40,3.6,BR,1674413947
389,dingle,10.9995,122.6711,296.43,93,100,3.87,PH,1674413947
390,kamaishi,39.2667,141.8833,271.27,62,4,1.98,JP,1674413948
391,ponta do sol,32.6667,-17.1,291.32,60,47,3.35,PT,1674413948
392,mimongo,-1.6195,11.6068,294.63,94,99,0.69,GA,1674413949
393,sungairaya,0.7,108.9,298.06,89,94,0.85,ID,1674413949
394,grand gaube,-20.0064,57.6608,299.37,80,100,4.06,MU,1674413950
395,talara,-4.5772,-81.2719,301.57,57,0,5.14,PE,1674413950
396,ust-nera,64.5667,143.2,235.98,100,91,0.86,RU,1674413951
397,victor harbor,-35.5667,138.6167,289.82,86,24,3.05,AU,1674413951
398,odienne,9.51,-7.5692,303.85,19,8,1.22,CI,1674413952
399,saint-francois,46.4154,3.9054,273.84,84,100,4.63,FR,1674413884
400,northam,51.0333,-4.2167,278.92,76,100,4.15,GB,1674413952
401,bonfim,3.0833,-59.95,299.12,49,88,3.38,BR,1674413953
402,sioux lookout,50.1001,-91.917,267.19,79,40,1.54,CA,1674413954
403,porto nacional,-10.7081,-48.4172,297.15,95,100,1.05,BR,1674413954
404,homnabad,17.7667,77.1333,292.81,46,30,3.05,IN,1674413955
405,belmonte,-15.8631,-38.8828,300.07,84,100,3.91,BR,1674413955
406,turukhansk,65.8167,87.9833,250.98,93,100,7.5,RU,1674413956
407,micheweni,-4.9667,39.8333,300.24,82,100,7.32,TZ,1674413956
408,bilokurakyne,49.5341,38.7307,271.4,77,100,5.11,UA,1674413957
409,beringovskiy,63.05,179.3167,252.43,94,100,5.88,RU,1674413957
410,den helder,52.9599,4.7593,276.14,83,100,4.47,NL,1674413957
411,samalkha,29.2333,77.0167,285.1,51,7,2.13,IN,1674413958
412,sirsi,14.6167,74.85,291.14,42,40,2.04,IN,1674413959
413,kayerkan,69.3497,87.7602,245.1,95,62,2.04,RU,1674413959
414,pangai,-19.8,-174.35,301.21,74,20,4.63,TO,1674413960
415,berlevag,70.8578,29.0864,277.15,69,75,7.2,NO,1674413960
416,port blair,11.6667,92.75,299.17,78,40,2.57,IN,1674413961
417,khor,47.8861,134.9464,233.05,100,37,1.7,RU,1674413961
418,uarini,-2.99,-65.1083,300.3,86,72,1.57,BR,1674413962
419,amahai,-3.3333,128.9167,298.74,82,100,1.54,ID,1674413962
420,dhidhdhoo,6.8833,73.1,299.69,75,100,3.77,MV,1674413962
421,nacala,-14.5428,40.6728,297.28,92,100,4.62,MZ,1674413963
422,kristiansand,58.1467,7.9956,273.63,85,75,0.0,NO,1674413963
423,vostok,46.4856,135.8833,240.18,98,29,2.05,RU,1674413964
424,viedma,-40.8135,-62.9967,300.23,33,0,7.57,AR,1674413964
425,kiruna,67.8557,20.2251,266.66,86,0,2.57,SE,1674413965
426,labytnangi,66.6572,66.4183,261.49,87,18,3.69,RU,1674413965
427,aykino,62.2248,49.9922,252.92,100,80,1.55,RU,1674413965
428,hambantota,6.1241,81.1185,297.34,94,40,2.06,LK,1674413966
429,salalah,17.0151,54.0924,295.42,68,32,3.67,OM,1674413967
430,vanderhoof,54.0166,-124.0198,265.29,90,40,0.44,CA,1674413967
431,jawhar,2.7809,45.5005,297.65,76,16,8.79,SO,1674413968
432,tumpat,6.1978,102.171,299.14,88,40,3.09,MY,1674413968
433,brandon,27.9378,-82.2859,301.09,72,100,8.75,US,1674413969
434,skibbereen,51.55,-9.2667,282.1,96,77,1.84,IE,1674413969
435,mount isa,-20.7333,139.5,292.02,63,19,2.06,AU,1674413969
436,nerchinskiy zavod,51.3088,119.61,230.81,100,100,0.58,RU,1674413970
437,mercedes,-34.6515,-59.4307,307.56,22,0,4.28,AR,1674413970
438,carauari,-4.8828,-66.8958,303.12,65,36,1.13,BR,1674413971
439,rio grande,-32.035,-52.0986,310.21,53,0,7.07,BR,1674413971
440,alofi,-19.0595,-169.9187,298.09,100,100,1.54,NU,1674413971
441,riberalta,-10.9833,-66.1,306.26,52,75,6.17,BO,1674413972
442,rio gallegos,-51.6226,-69.2181,292.18,22,75,3.09,AR,1674413972
443,hofn,64.2539,-15.2082,275.36,53,5,16.63,IS,1674413973
444,kapit,2.0167,112.9333,295.65,99,65,0.73,MY,1674413973
445,scarborough,54.2797,-0.4044,274.91,87,100,1.34,GB,1674413686
446,parintins,-2.6283,-56.7358,300.63,74,100,1.1,BR,1674413937
447,san luis,-33.295,-66.3356,298.84,55,91,3.9,AR,1674413974
448,karwar,14.8,74.1333,294.72,77,100,4.22,IN,1674413975
449,fukue,32.6881,128.8419,284.29,81,100,11.18,JP,1674413975
450,murray bridge,-35.1167,139.2667,288.77,83,7,2.79,AU,1674413976
451,emba,48.8264,58.1442,259.82,72,0,2.5,KZ,1674413976
452,pavlodar,52.3,76.95,260.04,72,0,4.0,KZ,1674413976
453,sao domingos,-13.3983,-46.3183,295.06,84,100,1.63,BR,1674413977
454,yar-sale,66.8333,70.8333,266.05,95,100,4.63,RU,1674413977
455,yugo-kamskiy,57.7053,55.5894,260.16,100,95,1.35,RU,1674413978
456,anadyr,64.75,177.4833,250.43,63,0,2.0,RU,1674413978
457,harper,4.375,-7.7169,299.92,79,61,4.16,LR,1674413979
458,poronaysk,49.2167,143.1167,247.99,92,18,2.49,RU,1674413979
459,flin flon,54.7682,-101.865,267.06,93,100,3.09,CA,1674413980
460,kharp,66.8014,65.8081,262.67,90,13,4.14,RU,1674413980
461,aloja,57.7669,24.8825,265.5,97,16,2.04,LV,1674413980
462,samarina,57.8878,27.8054,270.09,98,58,1.93,RU,1674413981
463,asahikawa,43.7678,142.3703,261.04,95,100,1.41,JP,1674413766
464,chapais,49.7834,-74.8492,268.03,89,100,3.54,CA,1674413981
465,puqi,29.7167,113.8833,280.64,77,99,1.15,CN,1674413982
466,mariel,22.9875,-82.7536,301.19,51,99,8.62,CU,1674413982
467,carutapera,-1.195,-46.02,299.89,83,84,3.68,BR,1674413983
468,ahome,25.9167,-109.1833,294.36,25,0,5.29,MX,1674413983
469,nizhniy odes,63.6445,54.856,256.35,100,100,1.55,RU,1674413984
470,abadan,30.3392,48.3043,285.12,94,40,0.0,IR,1674413984
471,mason city,43.1536,-93.201,268.47,92,100,2.06,US,1674413710
472,hondo,32.45,130.2,281.97,92,100,7.03,JP,1674413985
473,zelenets,61.8849,50.7489,252.71,100,100,1.3,RU,1674413985
474,marsabit,2.3284,37.9899,296.15,41,96,4.16,KE,1674413985
475,auburn,47.3073,-122.2284,279.1,92,100,1.54,US,1674413731
476,anloga,5.7947,0.8973,300.89,80,100,5.59,GH,1674413986
477,kizner,56.2749,51.508,258.7,97,100,1.77,RU,1674413987
478,romitan,39.9343,64.3814,265.12,100,100,1.03,UZ,1674413987
479,tecoanapa,16.5167,-98.75,301.06,58,0,4.24,MX,1674413987
480,cambridge,43.3601,-80.3127,273.01,92,100,2.06,CA,1674413898
481,vrangel,42.7297,133.0839,263.09,90,100,2.93,RU,1674413988
482,pietermaritzburg,-29.6168,30.3928,293.63,98,97,0.6,ZA,1674413989
483,birin,26.8865,88.0718,280.07,66,0,2.31,NP,1674413989
484,palmito,9.3333,-75.55,305.19,46,1,0.78,CO,1674413990
485,puerto ayacucho,5.6639,-67.6236,306.31,42,100,1.16,VE,1674413990
486,pelaya,8.6882,-73.6645,308.74,28,0,2.03,CO,1674413991
487,deputatskiy,69.3,139.9,233.36,99,68,2.13,RU,1674413991
488,tucuma,-0.1833,-50.05,298.55,91,100,4.01,BR,1674413992
489,jiuquan,39.7432,98.5174,258.37,46,88,3.69,CN,1674413992
490,oskarshamn,57.2645,16.4484,273.14,88,6,2.17,SE,1674413992
491,longkou,37.6508,120.3286,271.97,79,74,6.53,CN,1674413993
492,barrhead,55.7992,-4.3929,282.07,89,100,5.14,GB,1674413994
493,riverton,40.5219,-111.9391,271.06,84,100,7.15,US,1674413994
494,caravelas,-17.7125,-39.2481,302.32,69,100,4.04,BR,1674413994
495,progreso,21.2833,-89.6667,306.21,49,0,0.6,MX,1674413995
496,bella union,-30.2752,-57.6007,310.7,18,0,4.15,UY,1674413995
497,walvis bay,-22.9575,14.5053,292.48,81,35,4.59,NA,1674413996
498,salinopolis,-0.6136,-47.3561,299.4,86,100,5.04,BR,1674413996
499,kang,-23.6752,22.7876,301.29,22,3,3.52,BW,1674413996
500,maceio,-9.6658,-35.7353,303.84,62,20,6.17,BR,1674413736
501,richards bay,-28.783,32.0377,296.59,86,14,0.96,ZA,1674413997
502,gillette,44.2911,-105.5022,274.83,70,95,4.02,US,1674413997
503,havre-saint-pierre,50.2334,-63.5986,269.35,74,75,6.17,CA,1674413998
504,yerbogachen,61.2767,108.0108,232.61,99,100,2.79,RU,1674413998
505,naron,43.5167,-8.1528,282.6,72,98,3.4,ES,1674413999
506,oneonta,42.4529,-75.0638,274.98,86,100,4.75,US,1674413910
507,srednekolymsk,67.45,153.6833,234.46,98,100,1.61,RU,1674414000
508,plettenberg bay,-34.0527,23.3716,293.33,91,8,2.55,ZA,1674414000
509,tocopilla,-22.092,-70.1979,295.98,74,0,3.14,CL,1674414001
510,coruripe,-10.1256,-36.1756,301.38,64,100,6.18,BR,1674414002
511,rawson,-43.3002,-65.1023,291.84,58,15,8.36,AR,1674414002
512,ust-kuyga,70.0167,135.6,235.02,100,100,2.93,RU,1674414002
513,liverpool,53.4106,-2.9779,278.05,88,75,2.57,GB,1674414003
514,tartagal,-22.5164,-63.8013,310.9,27,52,2.84,AR,1674414004
515,bayir,37.2687,28.2167,280.44,82,0,0.75,TR,1674414005
516,grande prairie,55.1667,-118.8027,271.25,64,40,5.14,CA,1674413816
517,laurel,39.0993,-76.8483,278.54,86,100,2.06,US,1674414009
518,santa luzia,-19.7697,-43.8514,297.35,80,80,2.77,BR,1674414015
519,baryatino,54.3121,34.521,272.39,91,100,2.31,RU,1674414016
520,clyde,41.3042,-82.9752,273.6,90,100,1.05,US,1674414019
521,erzurum,40.0,41.5,269.97,62,0,1.23,TR,1674414028
522,chiredzi,-21.05,31.6667,298.5,54,100,2.12,ZW,1674414031
523,lufilufi,-13.8745,-171.5986,300.76,78,36,6.51,WS,1674414031
524,tuatapere,-46.1333,167.6833,283.52,66,42,1.41,NZ,1674414033
525,hobyo,5.3505,48.5268,298.08,77,59,9.94,SO,1674414033
526,zhengjiatun,43.5064,123.5064,253.55,45,100,5.63,CN,1674414034
527,khandyga,62.6667,135.6,221.53,100,99,0.75,RU,1674414035
528,pingliang,35.5392,106.6861,267.29,36,100,5.44,CN,1674414035
529,cuautepec,16.7,-99.0,302.79,42,0,3.61,MX,1674414037
530,arlit,18.7369,7.3853,296.56,11,0,2.29,NE,1674414037
531,bafq,31.6128,55.4107,277.07,51,1,1.78,IR,1674414038
532,san andres,12.5847,-81.7006,299.68,74,2,7.89,CO,1674414038
533,bawku,11.0616,-0.2417,304.29,13,0,1.54,GH,1674414039
534,ouadda,8.0777,22.4007,297.01,22,35,2.41,CF,1674414039
535,atambua,-9.1061,124.8925,296.38,87,96,1.07,ID,1674414040
536,wanning,18.8003,110.3967,294.99,94,100,2.52,CN,1674414040
537,hohhot,40.8106,111.6522,257.17,65,41,3.99,CN,1674414041
538,kieta,-6.2167,155.6333,299.0,82,100,0.41,PG,1674414041
539,kindersley,51.4668,-109.1682,274.16,93,100,7.2,CA,1674414042
540,muros,42.7762,-9.0603,281.95,70,68,3.74,ES,1674414043
541,suez,29.9737,32.5263,288.23,68,62,3.96,EG,1674414043
542,chingirlau,51.095,54.0814,255.61,84,24,1.47,KZ,1674414043
543,camacha,33.0833,-16.3333,287.83,77,75,6.17,PT,1674414044
544,moncton,46.1159,-64.8019,271.11,67,20,7.2,CA,1674413804
545,ciudad bolivar,8.1222,-63.5497,302.72,54,99,6.05,VE,1674414045
546,ambovombe,-25.1667,46.0833,297.66,81,100,6.96,MG,1674414045
547,namtsy,62.7161,129.6658,220.6,100,88,0.36,RU,1674414046
548,ashtian,34.5217,50.0019,269.2,76,6,2.85,IR,1674414046
549,haikou,20.0458,110.3417,292.91,95,96,3.31,CN,1674414047
550,ossora,59.2353,163.0719,254.1,98,100,7.13,RU,1674414047
551,santa barbara,34.7333,-120.0343,286.36,48,0,2.57,US,1674414039
