City_ID,City,Lat,Lng,Max Temp,Humidity,Cloudiness,Wind Speed,Country,Date
0,vaini,-21.2,-175.2,304.24,74,{'all': 75},"{'speed': 4.63, 'deg': 360}",TO,1674097991
1,tecoanapa,16.5167,-98.75,297.53,72,{'all': 42},"{'speed': 3.21, 'deg': 297, 'gust': 4}",MX,1674097991
2,pacific grove,36.6177,-121.9166,284.32,85,{'all': 0},"{'speed': 0.89, 'deg': 12, 'gust': 1.34}",US,1674097992
3,vila velha,-20.3297,-40.2925,297.12,88,{'all': 40},"{'speed': 1.54, 'deg': 310}",BR,1674097992
4,dikson,73.5069,80.5464,243.09,83,{'all': 100},"{'speed': 2.18, 'deg': 113, 'gust': 2.15}",RU,1674097993
5,mar del plata,-38.0023,-57.5575,295.34,90,{'all': 100},"{'speed': 8.05, 'deg': 65, 'gust': 9.83}",AR,1674097851
6,hobart,-42.8794,147.3294,291.63,55,{'all': 75},"{'speed': 7.72, 'deg': 190}",AU,1674097993
7,sao miguel do araguaia,-13.275,-50.1628,294.9,87,{'all': 85},"{'speed': 0.62, 'deg': 26, 'gust': 0.72}",BR,1674097900
8,kutum,14.2,24.6667,287.15,24,{'all': 57},"{'speed': 2.28, 'deg': 54, 'gust': 2.49}",SD,1674097994
9,nikolskoye,59.7035,30.7861,274.15,98,{'all': 100},"{'speed': 5.12, 'deg': 134, 'gust': 14.82}",RU,1674097964
10,rikitea,-23.1203,-134.9692,298.72,68,{'all': 100},"{'speed': 0.33, 'deg': 306, 'gust': 0.52}",PF,1674097987
11,port alfred,-33.5906,26.891,295.47,90,{'all': 95},"{'speed': 1.23, 'deg': 104, 'gust': 2.57}",ZA,1674097995
12,kaitangata,-46.2817,169.8464,293.29,69,{'all': 13},"{'speed': 3.65, 'deg': 99, 'gust': 4.63}",NZ,1674097995
13,punta arenas,-53.15,-70.9167,286.21,76,{'all': 0},"{'speed': 7.2, 'deg': 260}",CL,1674097990
14,penzance,50.1186,-5.5371,277.53,59,{'all': 100},"{'speed': 5.05, 'deg': 294, 'gust': 6.5}",GB,1674097996
15,busselton,-33.65,115.3333,300.41,37,{'all': 0},"{'speed': 2.87, 'deg': 91, 'gust': 3.01}",AU,1674097746
16,ilulissat,69.2167,-51.1,237.99,65,{'all': 0},"{'speed': 2.27, 'deg': 95, 'gust': 2.13}",GL,1674097997
17,noumea,-22.2763,166.4572,302.14,64,{'all': 2},"{'speed': 6.59, 'deg': 142, 'gust': 7.34}",NC,1674097997
18,longyearbyen,78.2186,15.6401,266.06,68,{'all': 0},"{'speed': 4.63, 'deg': 100}",SJ,1674097935
19,kapaa,22.0752,-159.319,299.33,81,{'all': 100},"{'speed': 3.6, 'deg': 170}",US,1674097998
20,jamestown,42.097,-79.2353,274.95,72,{'all': 100},"{'speed': 1.54, 'deg': 200}",US,1674097998
21,avarua,-21.2078,-159.775,297.18,94,{'all': 100},"{'speed': 6.17, 'deg': 70}",CK,1674097999
22,mataura,-46.1927,168.8643,301.24,27,{'all': 9},"{'speed': 1.33, 'deg': 338, 'gust': 3.97}",NZ,1674097744
23,aklavik,68.2191,-135.0107,251.48,100,{'all': 100},"{'speed': 1.56, 'deg': 207, 'gust': 1.55}",CA,1674097999
24,porto walter,-8.2686,-72.7439,295.14,99,{'all': 90},"{'speed': 0.94, 'deg': 83, 'gust': 1.53}",BR,1674098000
25,naze,28.3667,129.4833,287.65,58,{'all': 70},"{'speed': 4.75, 'deg': 311, 'gust': 4.77}",JP,1674098000
26,mayo,38.8876,-76.5119,281.12,75,{'all': 0},"{'speed': 1.54, 'deg': 20}",US,1674098001
27,barrow,71.2906,-156.7887,254.16,78,{'all': 100},"{'speed': 8.75, 'deg': 60}",US,1674097981
28,saint-joseph,-21.3667,55.6167,301.19,86,{'all': 92},"{'speed': 5.63, 'deg': 74, 'gust': 7.06}",RE,1674098002
29,filingue,14.3521,3.3168,291.95,18,{'all': 2},"{'speed': 3.66, 'deg': 49, 'gust': 3.81}",NE,1674098002
30,zabaykalsk,49.6333,117.3167,250.7,94,{'all': 98},"{'speed': 7.12, 'deg': 301, 'gust': 10.91}",RU,1674098002
31,springfield,37.2153,-93.2982,281.5,96,{'all': 100},"{'speed': 3.6, 'deg': 160}",US,1674097847
32,lebu,-37.6167,-73.65,286.23,88,{'all': 46},"{'speed': 3.18, 'deg': 176, 'gust': 4.23}",CL,1674098003
33,butaritari,3.0707,172.7902,299.99,80,{'all': 79},"{'speed': 6.96, 'deg': 87, 'gust': 8.4}",KI,1674098003
34,puerto ayora,-0.7393,-90.3518,297.34,94,{'all': 53},"{'speed': 2.25, 'deg': 178, 'gust': 2.62}",EC,1674098004
35,clyde river,70.4692,-68.5914,241.46,97,{'all': 100},"{'speed': 0.82, 'deg': 303, 'gust': 0.88}",CA,1674098004
36,jiuquan,39.7432,98.5174,263.76,56,{'all': 53},"{'speed': 1.38, 'deg': 279, 'gust': 1.41}",CN,1674098005
37,aviles,43.5547,-5.9248,279.77,87,{'all': 40},"{'speed': 6.69, 'deg': 220}",ES,1674098005
38,olga,43.7444,135.2892,267.3,78,{'all': 100},"{'speed': 1.64, 'deg': 238, 'gust': 3.74}",RU,1674098006
39,tiksi,71.6872,128.8694,238.89,100,{'all': 92},"{'speed': 0.72, 'deg': 0, 'gust': 1.14}",RU,1674098006
40,nazarovo,56.0064,90.3914,257.35,97,{'all': 100},"{'speed': 1.84, 'deg': 187, 'gust': 3.31}",RU,1674098007
41,champerico,14.3,-91.9167,298.28,67,{'all': 87},"{'speed': 2.16, 'deg': 308, 'gust': 2.44}",GT,1674098007
42,saint-philippe,-21.3585,55.7679,297.92,89,{'all': 90},"{'speed': 5.9, 'deg': 66, 'gust': 7.36}",RE,1674098008
43,kushima,31.4583,131.2333,284.23,50,{'all': 7},"{'speed': 3.11, 'deg': 306, 'gust': 5.9}",JP,1674098008
44,danielskuil,-28.1887,23.5395,293.1,57,{'all': 54},"{'speed': 2.37, 'deg': 236, 'gust': 4.33}",ZA,1674098009
45,thompson,55.7435,-97.8558,263.24,85,{'all': 100},"{'speed': 2.06, 'deg': 170}",CA,1674098009
46,new norfolk,-42.7826,147.0587,291.44,35,{'all': 18},"{'speed': 3.25, 'deg': 231, 'gust': 4.77}",AU,1674098010
47,trairi,-3.2778,-39.2689,297.82,86,{'all': 94},"{'speed': 2.86, 'deg': 95, 'gust': 5.35}",BR,1674097827
48,noyabrsk,63.1994,75.4507,254.57,99,{'all': 88},"{'speed': 3.77, 'deg': 305, 'gust': 5.1}",RU,1674098010
49,atuona,-9.8,-139.0333,299.24,77,{'all': 60},"{'speed': 8.93, 'deg': 97, 'gust': 10.17}",PF,1674098011
50,macomb,40.4592,-90.6718,275.84,95,{'all': 100},"{'speed': 4.63, 'deg': 90}",US,1674098011
51,ushuaia,-54.8,-68.3,283.04,94,{'all': 10},"{'speed': 1.71, 'deg': 303, 'gust': 1.67}",AR,1674097962
52,menongue,-14.6585,17.691,290.47,93,{'all': 100},"{'speed': 1.37, 'deg': 234, 'gust': 4.74}",AO,1674098012
53,hermanus,-34.4187,19.2345,293.04,93,{'all': 11},"{'speed': 3.82, 'deg': 288, 'gust': 5.09}",ZA,1674098012
54,sorong,-0.8833,131.25,301.3,73,{'all': 100},"{'speed': 3.66, 'deg': 10, 'gust': 4.31}",ID,1674098013
55,muroto,33.2833,134.15,282.44,61,{'all': 15},"{'speed': 3.32, 'deg': 264, 'gust': 3.29}",JP,1674098013
56,albany,42.6001,-73.9662,277.8,82,{'all': 100},"{'speed': 1.34, 'deg': 14, 'gust': 3.13}",US,1674097965
57,codrington,-38.2667,141.9667,290.51,45,{'all': 22},"{'speed': 7.43, 'deg': 166, 'gust': 7.76}",AU,1674098014
58,srednekolymsk,67.45,153.6833,239.98,99,{'all': 100},"{'speed': 1.57, 'deg': 243, 'gust': 1.66}",RU,1674098014
59,dubti,11.7361,41.0853,296.22,57,{'all': 76},"{'speed': 2.25, 'deg': 126, 'gust': 2.59}",ET,1674098014
60,sistranda,63.7256,8.834,275.13,80,{'all': 100},"{'speed': 8.63, 'deg': 232, 'gust': 10.22}",NO,1674098015
61,lakes entrance,-37.8811,147.981,294.35,55,{'all': 32},"{'speed': 5.28, 'deg': 199, 'gust': 5.5}",AU,1674098015
62,chokurdakh,70.6333,147.9167,235.16,100,{'all': 31},"{'speed': 2.35, 'deg': 355, 'gust': 2.33}",RU,1674097994
63,loudon,35.7328,-84.3338,287.82,95,{'all': 100},"{'speed': 4, 'deg': 169, 'gust': 11.13}",US,1674098016
64,cape town,-33.9258,18.4232,296.14,81,{'all': 78},"{'speed': 1.43, 'deg': 224, 'gust': 1.85}",ZA,1674097976
65,cairns,-16.9167,145.7667,300.99,83,{'all': 75},"{'speed': 7.2, 'deg': 130}",AU,1674097898
66,mabaruma,8.2,-59.7833,293.84,90,{'all': 66},"{'speed': 0.99, 'deg': 100, 'gust': 1.18}",GY,1674098017
67,lashio,22.9333,97.75,290.87,50,{'all': 0},"{'speed': 0.23, 'deg': 271, 'gust': 0.6}",MM,1674098017
68,souillac,-20.5167,57.5167,299.07,87,{'all': 98},"{'speed': 6.21, 'deg': 73, 'gust': 9.27}",MU,1674098018
69,palana,59.1167,159.9667,254.78,94,{'all': 98},"{'speed': 5.53, 'deg': 34, 'gust': 7.29}",RU,1674098018
70,torbay,47.6666,-52.7314,277.36,93,{'all': 100},"{'speed': 2.68, 'deg': 100, 'gust': 2.87}",CA,1674098018
71,ponta do sol,32.6667,-17.1,288.55,68,{'all': 54},"{'speed': 3.86, 'deg': 47, 'gust': 4.51}",PT,1674098019
72,azanka,58.0401,64.7893,260.74,94,{'all': 77},"{'speed': 2.48, 'deg': 249, 'gust': 8.9}",RU,1674098019
73,santa maria,-29.6842,-53.8069,295.89,85,{'all': 61},"{'speed': 5.15, 'deg': 92, 'gust': 12.06}",BR,1674098020
74,biak,-0.9131,122.8766,301.58,65,{'all': 100},"{'speed': 0.34, 'deg': 219, 'gust': 2.59}",ID,1674098020
75,bluff,-46.6,168.3333,291.38,72,{'all': 72},"{'speed': 6.18, 'deg': 125, 'gust': 6.35}",NZ,1674097995
76,barra do garcas,-15.89,-52.2567,295.23,83,{'all': 16},"{'speed': 0.28, 'deg': 117, 'gust': 0.79}",BR,1674098021
77,hithadhoo,-0.6,73.0833,300.74,74,{'all': 9},"{'speed': 4.7, 'deg': 40, 'gust': 4.96}",MV,1674098021
78,yellowknife,62.456,-114.3525,268.44,100,{'all': 100},"{'speed': 5.66, 'deg': 150}",CA,1674097167
79,havre-saint-pierre,50.2334,-63.5986,274.35,93,{'all': 100},"{'speed': 1.54, 'deg': 350}",CA,1674098022
80,severo-kurilsk,50.6789,156.125,264.41,62,{'all': 100},"{'speed': 12.99, 'deg': 308, 'gust': 14.78}",RU,1674097738
81,yelan,50.949,43.7378,265.8,83,{'all': 16},"{'speed': 5.46, 'deg': 137, 'gust': 12.99}",RU,1674098023
82,katsuura,35.1333,140.3,281.45,73,{'all': 100},"{'speed': 6.61, 'deg': 31, 'gust': 7.11}",JP,1674098023
83,margate,51.3813,1.3862,275.2,86,{'all': 9},"{'speed': 1.34, 'deg': 323, 'gust': 1.79}",GB,1674098024
84,nyrob,60.733,56.7202,262.79,96,{'all': 98},"{'speed': 3.2, 'deg': 169, 'gust': 8.96}",RU,1674098024
85,tuktoyaktuk,69.4541,-133.0374,256.97,96,{'all': 100},"{'speed': 0.87, 'deg': 20, 'gust': 1.36}",CA,1674098025
86,chippewa falls,44.9369,-91.3929,273.94,84,{'all': 100},"{'speed': 5.55, 'deg': 74, 'gust': 11.9}",US,1674097805
87,bambous virieux,-20.3428,57.7575,299.38,87,{'all': 99},"{'speed': 6.63, 'deg': 75, 'gust': 8.93}",MU,1674097999
88,coahuayana,18.7333,-103.6833,291.95,87,{'all': 80},"{'speed': 1.39, 'deg': 41, 'gust': 1.69}",MX,1674098025
89,coquimbo,-29.9533,-71.3436,290.0,88,{'all': 100},"{'speed': 3.09, 'deg': 300}",CL,1674098026
90,cherskiy,68.75,161.3,230.13,99,{'all': 91},"{'speed': 1.52, 'deg': 140, 'gust': 1.43}",RU,1674098026
91,atambua,-9.1061,124.8925,300.95,70,{'all': 100},"{'speed': 2.88, 'deg': 309, 'gust': 3.47}",ID,1674098027
92,pimentel,-6.8367,-79.9342,293.31,88,{'all': 0},"{'speed': 5.66, 'deg': 190}",PE,1674098027
93,huarmey,-10.0681,-78.1522,294.62,77,{'all': 100},"{'speed': 3.02, 'deg': 192, 'gust': 3.94}",PE,1674098028
94,kaitong,44.8135,123.15,262.68,45,{'all': 26},"{'speed': 1.32, 'deg': 334, 'gust': 1.77}",CN,1674098028
95,kloulklubed,7.0419,134.2556,299.43,80,{'all': 98},"{'speed': 7.54, 'deg': 65, 'gust': 8.5}",PW,1674098029
96,dakar,14.6937,-17.4441,294.64,73,{'all': 16},"{'speed': 9.19, 'deg': 24, 'gust': 14.5}",SN,1674098029
97,constitucion,-35.3333,-72.4167,286.4,91,{'all': 15},"{'speed': 1.36, 'deg': 172, 'gust': 1.79}",CL,1674098029
98,taltal,-25.4,-70.4833,292.54,82,{'all': 44},"{'speed': 1.01, 'deg': 234, 'gust': 1.93}",CL,1674098030
99,tasiilaq,65.6145,-37.6368,260.24,82,{'all': 100},"{'speed': 1.7, 'deg': 30, 'gust': 1.87}",GL,1674098030
100,ajdabiya,30.7554,20.2263,285.62,48,{'all': 95},"{'speed': 5.56, 'deg': 158, 'gust': 9.42}",LY,1674098031
101,mecca,21.4267,39.8261,294.55,47,{'all': 15},"{'speed': 1.23, 'deg': 68, 'gust': 1.48}",SA,1674097968
102,luderitz,-26.6481,15.1594,291.55,85,{'all': 4},"{'speed': 4.24, 'deg': 178, 'gust': 6.57}",NA,1674098031
103,khatanga,71.9667,102.5,236.87,100,{'all': 16},"{'speed': 2.8, 'deg': 60, 'gust': 4.12}",RU,1674097770
104,namibe,-15.1961,12.1522,296.3,74,{'all': 100},"{'speed': 1.78, 'deg': 215, 'gust': 1.74}",AO,1674098032
105,richards bay,-28.783,32.0377,298.84,77,{'all': 91},"{'speed': 6.37, 'deg': 17, 'gust': 14.72}",ZA,1674098032
106,manggar,-2.8833,108.2667,298.88,86,{'all': 100},"{'speed': 2.91, 'deg': 265, 'gust': 3.94}",ID,1674098033
107,progreso,21.2833,-89.6667,298.21,61,{'all': 40},"{'speed': 6.05, 'deg': 135, 'gust': 12.83}",MX,1674097948
108,yanam,16.7333,82.2167,296.28,73,{'all': 53},"{'speed': 0.64, 'deg': 3, 'gust': 0.88}",IN,1674098034
109,kudahuvadhoo,2.6708,72.8944,299.97,79,{'all': 62},"{'speed': 5.02, 'deg': 60, 'gust': 5.24}",MV,1674098034
110,port elizabeth,-33.918,25.5701,297.21,90,{'all': 97},"{'speed': 1.79, 'deg': 225, 'gust': 7.6}",ZA,1674097972
111,daru,-9.0763,143.2092,303.42,64,{'all': 100},"{'speed': 4.87, 'deg': 303, 'gust': 8.38}",PG,1674098035
112,bonthe,7.5264,-12.505,296.8,87,{'all': 4},"{'speed': 1.7, 'deg': 333, 'gust': 2.02}",SL,1674098035
113,micheweni,-4.9667,39.8333,299.34,79,{'all': 100},"{'speed': 3.35, 'deg': 11, 'gust': 4.43}",TZ,1674098036
114,faanui,-16.4833,-151.75,300.41,71,{'all': 10},"{'speed': 5.72, 'deg': 76, 'gust': 6.49}",PF,1674098036
115,rawlins,41.7911,-107.2387,259.69,92,{'all': 13},"{'speed': 6.06, 'deg': 229, 'gust': 9.95}",US,1674098037
116,san luis,-33.295,-66.3356,297.07,62,{'all': 86},"{'speed': 3.56, 'deg': 42, 'gust': 4.88}",AR,1674098037
117,mahebourg,-20.4081,57.7,299.4,86,{'all': 99},"{'speed': 6.76, 'deg': 74, 'gust': 9.1}",MU,1674098037
118,arraial do cabo,-22.9661,-42.0278,296.58,90,{'all': 100},"{'speed': 6.26, 'deg': 58, 'gust': 10.31}",BR,1674097749
119,gayny,60.3071,54.3241,264.19,92,{'all': 93},"{'speed': 3.08, 'deg': 195, 'gust': 9.67}",RU,1674098038
120,esperance,-33.8667,121.9,294.73,47,{'all': 100},"{'speed': 6.08, 'deg': 119, 'gust': 6.05}",AU,1674098038
121,east london,-33.0153,27.9116,297.03,77,{'all': 87},"{'speed': 2.08, 'deg': 358, 'gust': 2.47}",ZA,1674098035
122,warwick,41.7001,-71.4162,279.42,76,{'all': 20},"{'speed': 6.17, 'deg': 310}",US,1674097937
123,dzhebariki-khaya,62.2167,135.8,226.93,95,{'all': 98},"{'speed': 0.89, 'deg': 204, 'gust': 1.33}",RU,1674098039
124,upernavik,72.7868,-56.1549,245.28,72,{'all': 100},"{'speed': 2.19, 'deg': 96, 'gust': 2.39}",GL,1674097979
125,lompoc,34.6391,-120.4579,282.47,88,{'all': 20},"{'speed': 0.45, 'deg': 0, 'gust': 0.89}",US,1674097807
126,saskylakh,71.9167,114.0833,234.15,100,{'all': 37},"{'speed': 0.28, 'deg': 86, 'gust': 0.56}",RU,1674098033
127,karasjok,69.4719,25.5112,272.46,86,{'all': 100},"{'speed': 10.67, 'deg': 179, 'gust': 17.4}",NO,1674098040
128,manado,1.487,124.8455,304.58,66,{'all': 40},"{'speed': 1.54, 'deg': 0}",ID,1674098041
129,kismayo,-0.3582,42.5454,297.54,83,{'all': 99},"{'speed': 5.89, 'deg': 65, 'gust': 10.28}",SO,1674098041
130,ostrovnoy,68.0531,39.5131,271.91,89,{'all': 100},"{'speed': 7.81, 'deg': 181, 'gust': 13.11}",RU,1674098042
131,san patricio,28.017,-97.5169,294.2,56,{'all': 6},"{'speed': 3.04, 'deg': 14, 'gust': 3.86}",US,1674098042
132,cabo san lucas,22.8909,-109.9124,293.43,74,{'all': 40},"{'speed': 2.84, 'deg': 313, 'gust': 3.31}",MX,1674097806
133,sieradz,51.5958,18.7302,274.4,96,{'all': 100},"{'speed': 2.17, 'deg': 241, 'gust': 3.66}",PL,1674098043
134,ambilobe,-13.2,49.05,295.77,95,{'all': 100},"{'speed': 8.81, 'deg': 276, 'gust': 15.11}",MG,1674098043
135,ardahan,41.1087,42.7022,263.95,83,{'all': 18},"{'speed': 0.42, 'deg': 206, 'gust': 1.4}",TR,1674098044
136,taksimo,56.3444,114.8794,241.44,81,{'all': 98},"{'speed': 1.12, 'deg': 342, 'gust': 1.27}",RU,1674098044
137,itoman,26.1247,127.6694,292.36,55,{'all': 20},"{'speed': 4.12, 'deg': 350}",JP,1674098045
138,gunjur,13.2019,-16.7339,295.19,37,{'all': 0},"{'speed': 3.09, 'deg': 330}",GM,1674098045
139,cervo,43.6702,-7.4101,281.58,73,{'all': 98},"{'speed': 6.36, 'deg': 253, 'gust': 8.77}",ES,1674098046
140,sangar,63.9242,127.4739,229.23,89,{'all': 100},"{'speed': 0.7, 'deg': 144, 'gust': 1.43}",RU,1674098047
141,nailon,11.0521,124.0385,300.27,84,{'all': 35},"{'speed': 5.12, 'deg': 23, 'gust': 6.66}",PH,1674098048
142,lagoa,39.05,-27.9833,286.26,71,{'all': 0},"{'speed': 2.67, 'deg': 181, 'gust': 2.69}",PT,1674098033
143,tagusao,9.1924,117.8141,301.67,71,{'all': 100},"{'speed': 1.85, 'deg': 83, 'gust': 3.07}",PH,1674098048
144,grand gaube,-20.0064,57.6608,299.47,82,{'all': 97},"{'speed': 3.58, 'deg': 90, 'gust': 7.15}",MU,1674098048
145,bathsheba,13.2167,-59.5167,299.49,69,{'all': 40},"{'speed': 8.23, 'deg': 100}",BB,1674098049
146,goderich,43.7501,-81.7165,274.77,90,{'all': 100},"{'speed': 2.32, 'deg': 122, 'gust': 2.47}",CA,1674098050
147,narsaq,60.9167,-46.05,274.27,90,{'all': 100},"{'speed': 4.47, 'deg': 38, 'gust': 7.73}",GL,1674098050
148,lebedinyy,58.5167,125.5167,229.48,95,{'all': 100},"{'speed': 1.48, 'deg': 306, 'gust': 1.43}",RU,1674098050
149,airai,-8.9266,125.4092,295.04,71,{'all': 100},"{'speed': 1.93, 'deg': 270, 'gust': 3.01}",TL,1674098051
150,klaksvik,62.2266,-6.589,276.66,80,{'all': 100},"{'speed': 12.69, 'deg': 10, 'gust': 14.63}",FO,1674098051
151,mount gambier,-37.8333,140.7667,291.42,40,{'all': 10},"{'speed': 5.87, 'deg': 162, 'gust': 7.22}",AU,1674098052
152,husavik,66.0449,-17.3389,269.31,77,{'all': 100},"{'speed': 4.56, 'deg': 4, 'gust': 5.64}",IS,1674098052
153,nianzishan,47.5167,122.8833,257.74,68,{'all': 98},"{'speed': 0.59, 'deg': 60, 'gust': 0.35}",CN,1674098053
154,antalaha,-14.9003,50.2788,297.68,94,{'all': 100},"{'speed': 10.89, 'deg': 72, 'gust': 16.33}",MG,1674098054
155,urcos,-13.6861,-71.6228,286.09,92,{'all': 100},"{'speed': 1.3, 'deg': 6, 'gust': 1.72}",PE,1674098055
156,sapele,5.8941,5.6767,297.28,91,{'all': 8},"{'speed': 1.05, 'deg': 329, 'gust': 1.09}",NG,1674098056
157,kumbo,6.2,10.6667,288.02,40,{'all': 99},"{'speed': 1.58, 'deg': 328, 'gust': 1.63}",CM,1674098056
158,kahului,20.8947,-156.47,301.16,58,{'all': 20},"{'speed': 4.12, 'deg': 50}",US,1674097770
159,bengkulu,-3.8004,102.2655,298.46,83,{'all': 99},"{'speed': 2.39, 'deg': 316, 'gust': 3.08}",ID,1674097988
160,tabuk,17.4189,121.4443,295.35,88,{'all': 100},"{'speed': 1.64, 'deg': 327, 'gust': 2.28}",PH,1674098057
161,lixourion,38.2019,20.4314,288.7,84,{'all': 46},"{'speed': 10.38, 'deg': 166, 'gust': 15.09}",GR,1674098057
162,mosquera,4.7059,-74.2302,284.2,93,{'all': 40},"{'speed': 1.54, 'deg': 340}",CO,1674098058
163,dongsheng,39.8161,109.9776,260.51,58,{'all': 9},"{'speed': 9.45, 'deg': 305, 'gust': 12.52}",CN,1674098058
164,dothan,31.2232,-85.3905,293.26,88,{'all': 100},"{'speed': 5.66, 'deg': 160}",US,1674097862
165,kharp,66.8014,65.8081,259.69,89,{'all': 11},"{'speed': 4.2, 'deg': 321, 'gust': 5.66}",RU,1674098059
166,metro,-5.1131,105.3067,298.49,85,{'all': 100},"{'speed': 5.24, 'deg': 330, 'gust': 8.15}",ID,1674098059
167,spas-demensk,54.4122,34.0226,276.76,97,{'all': 100},"{'speed': 5.74, 'deg': 174, 'gust': 14.96}",RU,1674098060
168,mayumba,-3.432,10.6554,298.36,86,{'all': 100},"{'speed': 2.73, 'deg': 160, 'gust': 2.72}",GA,1674098060
169,hobyo,5.3505,48.5268,297.54,77,{'all': 88},"{'speed': 8.17, 'deg': 38, 'gust': 11.74}",SO,1674098061
170,soure,-0.7167,-48.5233,296.86,82,{'all': 99},"{'speed': 0.77, 'deg': 203, 'gust': 1.12}",BR,1674098061
171,baghdad,33.3406,44.4009,281.1,100,{'all': 0},"{'speed': 2.57, 'deg': 310}",IQ,1674098008
172,hasaki,35.7333,140.8333,282.2,60,{'all': 93},"{'speed': 5.75, 'deg': 32, 'gust': 5.76}",JP,1674098002
173,hokitika,-42.7167,170.9667,294.42,62,{'all': 2},"{'speed': 4.81, 'deg': 270, 'gust': 5.13}",NZ,1674098063
174,vostok,46.4856,135.8833,261.01,89,{'all': 100},"{'speed': 1.56, 'deg': 133, 'gust': 3.77}",RU,1674098063
175,japura,-0.3167,102.35,300.63,75,{'all': 51},"{'speed': 1.95, 'deg': 360, 'gust': 3.97}",ID,1674098063
176,tual,-5.6667,132.75,301.45,75,{'all': 100},"{'speed': 9.04, 'deg': 307, 'gust': 10.01}",ID,1674098064
177,san cristobal,7.7669,-72.225,291.11,87,{'all': 19},"{'speed': 0.69, 'deg': 347, 'gust': 1.07}",VE,1674098064
178,biltine,14.5333,20.9167,292.14,20,{'all': 16},"{'speed': 3.37, 'deg': 75, 'gust': 4.65}",TD,1674098065
179,caravelas,-17.7125,-39.2481,296.42,91,{'all': 0},"{'speed': 1.02, 'deg': 89, 'gust': 2.12}",BR,1674097919
180,castro,-24.7911,-50.0119,289.69,92,{'all': 100},"{'speed': 1.21, 'deg': 93, 'gust': 1.23}",BR,1674098066
181,starkville,33.4504,-88.8184,293.53,83,{'all': 75},"{'speed': 7.2, 'deg': 170, 'gust': 11.83}",US,1674098066
182,semnan,35.5729,53.3971,274.12,65,{'all': 1},"{'speed': 1.2, 'deg': 10, 'gust': 1.49}",IR,1674098038
183,la primavera,5.4906,-70.4092,299.6,46,{'all': 66},"{'speed': 2.46, 'deg': 41, 'gust': 7.98}",CO,1674098067
184,darnah,32.767,22.6367,285.96,63,{'all': 98},"{'speed': 12.31, 'deg': 201, 'gust': 17.68}",LY,1674098067
185,fairbanks,64.8378,-147.7164,247.64,78,{'all': 20},"{'speed': 0, 'deg': 0}",US,1674097800
186,salalah,17.0151,54.0924,297.2,46,{'all': 0},"{'speed': 5.66, 'deg': 350}",OM,1674098041
187,talara,-4.5772,-81.2719,294.57,81,{'all': 86},"{'speed': 4.04, 'deg': 157, 'gust': 5.45}",PE,1674098068
188,saldanha,-33.0117,17.9442,291.58,92,{'all': 92},"{'speed': 3.45, 'deg': 200, 'gust': 4.57}",ZA,1674098068
189,bethlehem,-1.4558,-48.5044,296.17,94,{'all': 0},"{'speed': 2.06, 'deg': 140}",BR,1674098069
190,sawakin,19.1059,37.3321,295.09,70,{'all': 100},"{'speed': 4.68, 'deg': 337, 'gust': 6.16}",SD,1674098069
191,viedma,-40.8135,-62.9967,294.27,83,{'all': 64},"{'speed': 6.28, 'deg': 36, 'gust': 11.51}",AR,1674097783
192,laguna,38.421,-121.4238,284.42,77,{'all': 100},"{'speed': 6.17, 'deg': 160}",US,1674098070
193,port blair,11.6667,92.75,299.17,73,{'all': 100},"{'speed': 1.03, 'deg': 0}",IN,1674098030
194,port macquarie,-31.4333,152.9167,299.76,77,{'all': 99},"{'speed': 4.51, 'deg': 160, 'gust': 7.09}",AU,1674097990
195,sao filipe,14.8961,-24.4956,297.16,64,{'all': 3},"{'speed': 5.5, 'deg': 69, 'gust': 5.89}",CV,1674098071
196,aqtobe,50.2797,57.2072,257.2,55,{'all': 0},"{'speed': 2, 'deg': 30}",KZ,1674098071
197,lukulu,-14.3707,23.242,290.91,98,{'all': 100},"{'speed': 2.02, 'deg': 10, 'gust': 7.49}",ZM,1674098072
198,pevek,69.7008,170.3133,243.72,96,{'all': 100},"{'speed': 5.31, 'deg': 333, 'gust': 7.96}",RU,1674098072
199,syracuse,37.0881,15.2792,282.8,70,{'all': 4},"{'speed': 5.95, 'deg': 265, 'gust': 11.57}",IT,1674098072
200,sofikon,37.8,23.05,283.99,85,{'all': 100},"{'speed': 3, 'deg': 194, 'gust': 3.64}",GR,1674098073
201,fortuna,40.5982,-124.1573,278.7,96,{'all': 100},"{'speed': 2.57, 'deg': 140}",US,1674098073
202,los llanos de aridane,28.6585,-17.9182,289.01,82,{'all': 75},"{'speed': 7.72, 'deg': 30}",ES,1674098074
203,victoria,22.2855,114.1577,292.56,68,{'all': 0},"{'speed': 1.79, 'deg': 340}",HK,1674097854
204,hilo,19.7297,-155.09,296.0,93,{'all': 100},"{'speed': 5.14, 'deg': 100}",US,1674098074
205,kavaratti,10.5669,72.642,300.18,70,{'all': 80},"{'speed': 4.68, 'deg': 51, 'gust': 4.88}",IN,1674098075
206,saint-augustin,51.226,-58.6502,271.69,97,{'all': 88},"{'speed': 1.17, 'deg': 266, 'gust': 1.14}",CA,1674098075
207,faya,18.3851,42.4509,280.44,63,{'all': 1},"{'speed': 1.16, 'deg': 111, 'gust': 1.72}",SA,1674098076
208,miandrivazo,-19.5167,45.4667,297.28,65,{'all': 85},"{'speed': 1.71, 'deg': 112, 'gust': 1.97}",MG,1674098076
209,port hawkesbury,45.6169,-61.3485,276.99,98,{'all': 100},"{'speed': 3.09, 'deg': 260}",CA,1674098077
210,teguise,29.0605,-13.564,288.27,67,{'all': 75},"{'speed': 6.17, 'deg': 20}",ES,1674097965
211,nanortalik,60.1432,-45.2371,270.72,89,{'all': 100},"{'speed': 6.92, 'deg': 38, 'gust': 9.29}",GL,1674098077
212,bethel,41.3712,-73.414,280.2,72,{'all': 75},"{'speed': 3.6, 'deg': 320}",US,1674098078
213,birobidzhan,48.8,132.95,255.43,93,{'all': 100},"{'speed': 3.73, 'deg': 75, 'gust': 5.5}",RU,1674098078
214,riyadh,24.6877,46.7219,280.23,62,{'all': 93},"{'speed': 3.98, 'deg': 334, 'gust': 6.87}",SA,1674097944
215,kidal,18.4411,1.4078,290.96,15,{'all': 49},"{'speed': 2.3, 'deg': 106, 'gust': 2.43}",ML,1674098079
216,liusha,27.2098,108.59,278.98,52,{'all': 100},"{'speed': 0.78, 'deg': 335, 'gust': 1.62}",CN,1674098079
217,payakumbuh,-0.2202,100.6308,297.22,80,{'all': 97},"{'speed': 1.67, 'deg': 36, 'gust': 3.38}",ID,1674098079
218,andros town,24.7,-77.7667,295.13,63,{'all': 70},"{'speed': 5.3, 'deg': 115, 'gust': 6.13}",BS,1674098080
219,aswan,24.0934,32.907,286.56,63,{'all': 0},"{'speed': 4.31, 'deg': 12, 'gust': 5.14}",EG,1674098080
220,kijang,35.2442,129.2139,277.44,39,{'all': 37},"{'speed': 1.54, 'deg': 268, 'gust': 2.34}",KR,1674098081
221,coihaique,-45.5752,-72.0662,289.49,67,{'all': 0},"{'speed': 1.03, 'deg': 0}",CL,1674098081
222,krasnovishersk,60.4078,57.082,261.93,96,{'all': 100},"{'speed': 2.95, 'deg': 164, 'gust': 8.14}",RU,1674098082
223,provideniya,64.3833,-173.3,249.21,58,{'all': 20},"{'speed': 3, 'deg': 360}",RU,1674098012
224,manokwari,-0.8667,134.0833,300.53,71,{'all': 100},"{'speed': 2.78, 'deg': 351, 'gust': 3.08}",ID,1674098082
225,hanzhong,33.0728,107.0303,277.21,45,{'all': 99},"{'speed': 0.62, 'deg': 264, 'gust': 0.89}",CN,1674098083
226,iqaluit,63.7506,-68.5145,244.09,68,{'all': 14},"{'speed': 1.34, 'deg': 330}",CA,1674097992
227,gobindpur,22.6333,86.0667,290.81,50,{'all': 1},"{'speed': 1.42, 'deg': 47, 'gust': 1.46}",IN,1674098084
228,haines junction,60.7522,-137.5108,256.88,100,{'all': 91},"{'speed': 0.64, 'deg': 245, 'gust': 0.63}",CA,1674098084
229,norman wells,65.282,-126.8329,249.88,99,{'all': 95},"{'speed': 1.47, 'deg': 304, 'gust': 2.65}",CA,1674098084
230,rocha,-34.4833,-54.3333,292.72,88,{'all': 100},"{'speed': 3.15, 'deg': 65, 'gust': 9.3}",UY,1674098085
231,luau,-10.7073,22.2247,289.36,98,{'all': 95},"{'speed': 1.61, 'deg': 350, 'gust': 2.48}",AO,1674098085
232,pisco,-13.7,-76.2167,295.18,73,{'all': 0},"{'speed': 2.57, 'deg': 220}",PE,1674098086
233,tairua,-37.0167,175.85,294.93,80,{'all': 53},"{'speed': 1.65, 'deg': 316, 'gust': 2.33}",NZ,1674098086
234,suleja,9.1758,7.1808,296.46,24,{'all': 2},"{'speed': 1.68, 'deg': 63, 'gust': 2.05}",NG,1674098087
235,casablanca,33.5928,-7.6192,287.22,71,{'all': 61},"{'speed': 4.92, 'deg': 40}",MA,1674098087
236,macau,22.2006,113.5461,289.04,67,{'all': 0},"{'speed': 5.66, 'deg': 360}",MO,1674098088
237,saint anthony,45.0205,-93.218,273.68,84,{'all': 100},"{'speed': 4.63, 'deg': 70}",US,1674098088
238,paamiut,61.994,-49.6678,270.51,93,{'all': 100},"{'speed': 3.77, 'deg': 30, 'gust': 4.56}",GL,1674098088
239,guerrero negro,27.9769,-114.0611,287.58,60,{'all': 99},"{'speed': 4.18, 'deg': 315, 'gust': 5.62}",MX,1674098089
240,chapais,49.7834,-74.8492,267.03,94,{'all': 100},"{'speed': 4.01, 'deg': 312, 'gust': 10.13}",CA,1674098089
241,komsomolskiy,40.4272,71.7189,263.55,79,{'all': 65},"{'speed': 2.06, 'deg': 140}",UZ,1674098090
242,nanakuli,21.3906,-158.1547,301.12,63,{'all': 0},"{'speed': 3.6, 'deg': 130}",US,1674098090
243,chiriguana,9.3624,-73.6031,297.81,71,{'all': 7},"{'speed': 1.13, 'deg': 140, 'gust': 1.66}",CO,1674098091
244,qaanaaq,77.484,-69.3632,244.88,97,{'all': 100},"{'speed': 2.46, 'deg': 65, 'gust': 2.8}",GL,1674098091
245,bin qirdan,33.1378,11.2197,284.97,55,{'all': 11},"{'speed': 4.88, 'deg': 265, 'gust': 7.75}",TN,1674098092
246,yangambi,0.8102,24.4336,293.55,76,{'all': 47},"{'speed': 1.04, 'deg': 184, 'gust': 1.04}",CD,1674098092
247,antofagasta,-23.65,-70.4,292.75,82,{'all': 39},"{'speed': 2.51, 'deg': 216, 'gust': 2.83}",CL,1674098092
248,lata,40.1629,-8.3327,276.52,89,{'all': 30},"{'speed': 0.54, 'deg': 146, 'gust': 0.71}",PT,1674098093
249,tautira,-17.7333,-149.15,300.3,75,{'all': 22},"{'speed': 7.63, 'deg': 65, 'gust': 7.83}",PF,1674098053
250,yelizovo,53.1873,158.3805,263.23,61,{'all': 75},"{'speed': 8.05, 'deg': 320, 'gust': 0}",RU,1674098093
251,ouesso,1.6136,16.0517,296.54,50,{'all': 76},"{'speed': 0.34, 'deg': 217, 'gust': 0.52}",CG,1674098094
252,hamilton,39.1834,-84.5333,280.5,92,{'all': 100},"{'speed': 3.6, 'deg': 40}",US,1674097937
253,prince george,53.9166,-122.753,272.2,96,{'all': 100},"{'speed': 1.83, 'deg': 185, 'gust': 3.44}",CA,1674098094
254,along,28.1667,94.7667,287.65,44,{'all': 2},"{'speed': 0.39, 'deg': 18, 'gust': 1.85}",IN,1674098095
255,boyabat,41.4689,34.7667,279.24,81,{'all': 7},"{'speed': 0.42, 'deg': 283, 'gust': 1.07}",TR,1674098095
256,marsa matruh,31.3525,27.2453,286.79,76,{'all': 0},"{'speed': 4.75, 'deg': 151, 'gust': 5.8}",EG,1674098096
257,adrar,20.5022,-10.0711,288.79,37,{'all': 99},"{'speed': 4.04, 'deg': 359, 'gust': 6.09}",MR,1674098096
258,tocopilla,-22.092,-70.1979,294.6,77,{'all': 41},"{'speed': 3.13, 'deg': 202, 'gust': 3.38}",CL,1674098097
259,hervey bay,-25.2986,152.8535,302.6,57,{'all': 0},"{'speed': 4.02, 'deg': 199, 'gust': 8.94}",AU,1674098097
260,presevo,42.3092,21.6492,285.37,81,{'all': 14},"{'speed': 5.35, 'deg': 164, 'gust': 14.06}",RS,1674098098
261,carnarvon,-24.8667,113.6333,304.79,52,{'all': 0},"{'speed': 3.51, 'deg': 334, 'gust': 5.62}",AU,1674098069
262,anadyr,64.75,177.4833,245.43,76,{'all': 75},"{'speed': 4, 'deg': 360}",RU,1674098098
263,mindelo,16.8901,-24.9804,294.9,73,{'all': 40},"{'speed': 8.75, 'deg': 50}",CV,1674098099
264,la ronge,55.1001,-105.2842,260.7,98,{'all': 96},"{'speed': 2.41, 'deg': 153, 'gust': 5.2}",CA,1674098099
265,plyussa,58.4308,29.3654,276.42,98,{'all': 100},"{'speed': 5.63, 'deg': 152, 'gust': 14.21}",RU,1674098099
266,georgetown,5.4112,100.3354,302.11,61,{'all': 20},"{'speed': 4.63, 'deg': 40}",MY,1674097975
267,comodoro rivadavia,-45.8667,-67.5,294.45,67,{'all': 3},"{'speed': 0.75, 'deg': 239, 'gust': 1.51}",AR,1674098100
268,vanimo,-2.6741,141.3028,302.21,65,{'all': 91},"{'speed': 3.53, 'deg': 295, 'gust': 5.88}",PG,1674098100
269,marawi,7.9986,124.2928,299.17,71,{'all': 42},"{'speed': 2.3, 'deg': 347, 'gust': 2.12}",PH,1674098101
270,festus,38.2206,-90.396,279.44,97,{'all': 100},"{'speed': 1.18, 'deg': 204, 'gust': 2.07}",US,1674097908
271,diamantino,-14.4086,-56.4461,295.41,82,{'all': 59},"{'speed': 2.28, 'deg': 31, 'gust': 3.66}",BR,1674098102
272,lavrentiya,65.5833,-171.0,243.03,93,{'all': 17},"{'speed': 3.52, 'deg': 322, 'gust': 3.74}",RU,1674098102
273,yarmouth,41.7057,-70.2286,279.82,78,{'all': 0},"{'speed': 7.15, 'deg': 293, 'gust': 10.28}",US,1674098103
274,marathon,44.9,-89.7668,272.12,88,{'all': 100},"{'speed': 4.63, 'deg': 70}",US,1674098103
275,almaznyy,48.0448,40.045,272.46,92,{'all': 99},"{'speed': 5.57, 'deg': 146, 'gust': 12.48}",RU,1674098104
276,oistins,13.0667,-59.5333,299.2,69,{'all': 40},"{'speed': 8.23, 'deg': 100}",BB,1674098104
277,yulara,-25.2406,130.9889,303.17,30,{'all': 69},"{'speed': 4.95, 'deg': 111, 'gust': 5.34}",AU,1674098105
278,baicheng,45.6167,122.8167,262.72,40,{'all': 100},"{'speed': 2.2, 'deg': 261, 'gust': 2.77}",CN,1674098105
279,alofi,-19.0595,-169.9187,302.09,79,{'all': 75},"{'speed': 3.09, 'deg': 320}",NU,1674098106
280,ahipara,-35.1667,173.1667,295.33,61,{'all': 12},"{'speed': 3.94, 'deg': 225, 'gust': 4.21}",NZ,1674098106
281,zvenyhorodka,49.0787,30.9675,278.11,96,{'all': 41},"{'speed': 3.31, 'deg': 155, 'gust': 6.9}",UA,1674098107
282,hualmay,-11.0964,-77.6139,294.6,76,{'all': 99},"{'speed': 3.22, 'deg': 158, 'gust': 4}",PE,1674098107
283,green river,41.5286,-109.4662,265.37,97,{'all': 9},"{'speed': 2.15, 'deg': 243, 'gust': 2.7}",US,1674098108
284,astana,51.1801,71.446,249.12,70,{'all': 5},"{'speed': 3, 'deg': 220}",KZ,1674098108
285,saint-leu,-21.15,55.2833,301.46,100,{'all': 99},"{'speed': 0.88, 'deg': 269, 'gust': 3.15}",RE,1674098109
286,halifax,44.6453,-63.5724,275.1,92,{'all': 100},"{'speed': 2.24, 'deg': 260, 'gust': 4.92}",CA,1674097824
287,ribeira grande,38.5167,-28.7,286.36,83,{'all': 16},"{'speed': 0.89, 'deg': 117, 'gust': 1.34}",PT,1674098109
288,port lincoln,-34.7333,135.8667,291.33,51,{'all': 83},"{'speed': 6.82, 'deg': 133, 'gust': 6.99}",AU,1674098110
289,tailai,46.3833,123.4,259.72,60,{'all': 99},"{'speed': 1.46, 'deg': 262, 'gust': 1.92}",CN,1674098110
290,ada,43.4166,-116.1262,276.6,60,{'all': 0},"{'speed': 4.47, 'deg': 105, 'gust': 5.81}",US,1674098111
291,mount isa,-20.7333,139.5,308.02,28,{'all': 5},"{'speed': 4.63, 'deg': 90}",AU,1674098111
292,bobo dioulasso,11.1771,-4.2979,293.66,17,{'all': 0},"{'speed': 2.24, 'deg': 29, 'gust': 2.96}",BF,1674098112
293,beringovskiy,63.05,179.3167,242.76,92,{'all': 31},"{'speed': 2.65, 'deg': 314, 'gust': 3.74}",RU,1674098112
294,barroso,-21.1869,-43.9758,290.37,96,{'all': 5},"{'speed': 1.96, 'deg': 102, 'gust': 3.02}",BR,1674098113
295,kavieng,-2.5744,150.7967,302.07,71,{'all': 62},"{'speed': 4.82, 'deg': 330, 'gust': 5.2}",PG,1674098113
296,zhanaozen,43.3,52.8,269.16,57,{'all': 0},"{'speed': 4.42, 'deg': 86, 'gust': 5.04}",KZ,1674098114
297,igrim,63.1906,64.4162,253.39,100,{'all': 82},"{'speed': 1.67, 'deg': 229, 'gust': 1.54}",RU,1674098114
298,grindavik,63.8424,-22.4338,267.41,79,{'all': 0},"{'speed': 4.12, 'deg': 40}",IS,1674098115
299,hatillo,18.4863,-66.8254,295.43,79,{'all': 0},"{'speed': 0.89, 'deg': 195, 'gust': 0.89}",PR,1674098115
300,lerwick,60.1545,-1.1494,276.15,77,{'all': 100},"{'speed': 11.65, 'deg': 257, 'gust': 13.91}",GB,1674098116
301,rawson,-43.3002,-65.1023,295.22,68,{'all': 12},"{'speed': 6.04, 'deg': 22, 'gust': 10.73}",AR,1674098116
302,lorengau,-2.0226,147.2712,301.65,73,{'all': 70},"{'speed': 4.22, 'deg': 315, 'gust': 4.71}",PG,1674098117
303,vardo,70.3705,31.1107,274.14,80,{'all': 100},"{'speed': 12.35, 'deg': 190}",NO,1674098117
304,balestrand,61.2076,6.5334,268.79,98,{'all': 100},"{'speed': 1.25, 'deg': 85, 'gust': 1.2}",NO,1674098118
305,chuy,-33.6971,-53.4616,295.41,71,{'all': 100},"{'speed': 4.78, 'deg': 74, 'gust': 7.71}",UY,1674098118
306,poum,-20.2333,164.0167,299.72,68,{'all': 23},"{'speed': 8.02, 'deg': 181, 'gust': 7.76}",NC,1674098118
307,vilhena,-12.7406,-60.1458,292.69,98,{'all': 100},"{'speed': 0.99, 'deg': 36, 'gust': 1.1}",BR,1674098048
308,matay,28.419,30.7792,284.21,44,{'all': 0},"{'speed': 1.4, 'deg': 3, 'gust': 1.72}",EG,1674098119
309,canico,32.6333,-16.85,288.55,80,{'all': 75},"{'speed': 7.72, 'deg': 20}",PT,1674098120
310,valparaiso,-33.0393,-71.6273,290.64,100,{'all': 0},"{'speed': 1.03, 'deg': 0}",CL,1674097965
311,singapore,1.2897,103.8501,303.23,71,{'all': 75},"{'speed': 5.14, 'deg': 20}",SG,1674097833
312,samarai,-10.6167,150.6667,302.63,69,{'all': 100},"{'speed': 2.7, 'deg': 275, 'gust': 4.53}",PG,1674098120
313,usinsk,65.9939,57.5281,265.09,94,{'all': 100},"{'speed': 5.28, 'deg': 185, 'gust': 10.58}",RU,1674098121
314,mehran,33.1222,46.1646,283.37,59,{'all': 0},"{'speed': 3.83, 'deg': 321, 'gust': 6.16}",IR,1674098122
315,chulym,55.0997,80.9572,257.8,98,{'all': 96},"{'speed': 3.34, 'deg': 259, 'gust': 7.46}",RU,1674098122
316,ondjiva,-17.0667,15.7333,292.39,94,{'all': 100},"{'speed': 2.17, 'deg': 160, 'gust': 4.4}",AO,1674098123
317,bereda,43.2686,-7.5406,278.38,100,{'all': 93},"{'speed': 1.41, 'deg': 212, 'gust': 5.19}",ES,1674098123
318,cubara,7.0008,-72.1085,294.93,78,{'all': 37},"{'speed': 1.98, 'deg': 254, 'gust': 1.92}",CO,1674098124
319,derzhavinsk,51.1,66.3167,251.04,80,{'all': 69},"{'speed': 1.92, 'deg': 87, 'gust': 1.91}",KZ,1674098125
320,bichura,50.5881,107.6022,250.76,72,{'all': 66},"{'speed': 2.76, 'deg': 272, 'gust': 7.12}",RU,1674098126
321,potsdam,52.3989,13.0657,272.65,87,{'all': 42},"{'speed': 0.45, 'deg': 224, 'gust': 1.79}",DE,1674098126
322,nakhon thai,17.1006,100.8374,299.79,47,{'all': 0},"{'speed': 0.94, 'deg': 62, 'gust': 1.55}",TH,1674098127
323,sitka,57.0531,-135.33,278.09,81,{'all': 100},"{'speed': 6.17, 'deg': 270, 'gust': 10.29}",US,1674098052
324,cidreira,-30.1811,-50.2056,296.4,91,{'all': 97},"{'speed': 6.29, 'deg': 91, 'gust': 9.53}",BR,1674097876
325,gobabis,-22.45,18.9667,292.89,67,{'all': 75},"{'speed': 0.84, 'deg': 61, 'gust': 1.21}",NA,1674098128
326,san ignacio,17.1561,-89.0714,296.23,94,{'all': 0},"{'speed': 2.06, 'deg': 100}",BZ,1674098129
327,jefferson city,38.5767,-92.1735,280.1,93,{'all': 100},"{'speed': 0, 'deg': 0}",US,1674098129
328,maragogi,-9.0122,-35.2225,297.78,86,{'all': 27},"{'speed': 3.17, 'deg': 110, 'gust': 4.59}",BR,1674098130
329,mogadishu,2.0371,45.3438,297.44,84,{'all': 100},"{'speed': 8.04, 'deg': 49, 'gust': 12.18}",SO,1674098130
330,miraflores,19.2167,-98.8083,290.94,49,{'all': 92},"{'speed': 0.88, 'deg': 107, 'gust': 1.29}",MX,1674098131
331,rovaniemi,66.5,25.7167,272.82,93,{'all': 100},"{'speed': 3.6, 'deg': 150}",FI,1674098131
332,kirillov,59.863,38.3813,273.91,91,{'all': 100},"{'speed': 7.06, 'deg': 149, 'gust': 19.76}",RU,1674098132
333,carutapera,-1.195,-46.02,295.77,95,{'all': 90},"{'speed': 0.62, 'deg': 210, 'gust': 1.03}",BR,1674097973
334,zhigansk,66.7697,123.3711,230.14,95,{'all': 90},"{'speed': 5.86, 'deg': 344, 'gust': 12.5}",RU,1674098133
335,huambo,-12.7761,15.7392,286.8,85,{'all': 100},"{'speed': 0.75, 'deg': 222, 'gust': 0.82}",AO,1674098133
336,geraldton,-28.7667,114.6,310.38,30,{'all': 0},"{'speed': 7.72, 'deg': 310}",AU,1674098115
337,mareeba,-17.0,145.4333,298.42,89,{'all': 100},"{'speed': 0.82, 'deg': 128, 'gust': 1.84}",AU,1674098134
338,auki,-8.7676,160.7034,302.83,67,{'all': 66},"{'speed': 5.08, 'deg': 325, 'gust': 6.24}",SB,1674098134
339,morgan city,29.6994,-91.2068,295.15,83,{'all': 40},"{'speed': 8.75, 'deg': 170, 'gust': 11.83}",US,1674097977
340,golden,39.7555,-105.2211,270.5,90,{'all': 100},"{'speed': 0.89, 'deg': 304, 'gust': 4.02}",US,1674098135
341,abu samrah,35.3029,37.1841,281.17,86,{'all': 0},"{'speed': 1.65, 'deg': 222, 'gust': 1.66}",SY,1674098135
342,leh,34.1667,77.5833,260.34,90,{'all': 100},"{'speed': 0.12, 'deg': 357, 'gust': 0.57}",IN,1674098136
343,vestmanna,62.1564,-7.1664,275.66,87,{'all': 100},"{'speed': 9.77, 'deg': 360}",FO,1674098136
344,road town,18.4167,-64.6167,298.2,73,{'all': 3},"{'speed': 4.95, 'deg': 63, 'gust': 5.15}",VG,1674098136
345,kunda,25.7167,81.5167,283.94,49,{'all': 0},"{'speed': 0.86, 'deg': 298, 'gust': 0.87}",IN,1674098137
346,namatanai,-3.6667,152.4333,301.63,74,{'all': 93},"{'speed': 3.38, 'deg': 330, 'gust': 4.45}",PG,1674098137
347,faranah,10.0404,-10.7434,293.44,20,{'all': 2},"{'speed': 1.52, 'deg': 14, 'gust': 1.6}",GN,1674098138
348,roma,43.2128,-75.4557,276.46,98,{'all': 100},"{'speed': 2.57, 'deg': 270}",US,1674098138
349,matagami,49.7502,-77.6328,263.21,85,{'all': 100},"{'speed': 5.14, 'deg': 330}",CA,1674098139
350,yar-sale,66.8333,70.8333,258.11,96,{'all': 100},"{'speed': 1.88, 'deg': 168, 'gust': 1.87}",RU,1674098139
351,moron,-34.6534,-58.6198,299.81,73,{'all': 100},"{'speed': 4.29, 'deg': 104, 'gust': 10.6}",AR,1674098139
352,alice springs,-23.7,133.8833,304.38,40,{'all': 9},"{'speed': 4.63, 'deg': 110}",AU,1674098140
353,adre,13.4667,22.2,290.63,21,{'all': 75},"{'speed': 4.41, 'deg': 53, 'gust': 9.82}",TD,1674098140
354,wah,33.798,72.6957,281.49,42,{'all': 93},"{'speed': 1.45, 'deg': 17, 'gust': 1.37}",PK,1674098141
355,maarianhamina,60.0973,19.9348,272.07,93,{'all': 0},"{'speed': 0, 'deg': 0}",AX,1674098141
356,burgeo,47.6167,-57.6152,275.41,94,{'all': 100},"{'speed': 1.58, 'deg': 301, 'gust': 2.41}",CA,1674098141
357,port moresby,-9.4431,147.1797,303.83,66,{'all': 40},"{'speed': 5.14, 'deg': 320, 'gust': 10.29}",PG,1674098142
358,laguna de perlas,12.3429,-83.6712,297.61,86,{'all': 7},"{'speed': 2.68, 'deg': 75, 'gust': 3.11}",NI,1674098142
359,solnechnyy,50.7214,136.6319,249.45,91,{'all': 100},"{'speed': 1.77, 'deg': 29, 'gust': 1.75}",RU,1674098143
360,roebourne,-20.7833,117.1333,300.87,70,{'all': 97},"{'speed': 3.98, 'deg': 115, 'gust': 5.01}",AU,1674098143
361,claremore,36.3126,-95.6161,285.68,54,{'all': 0},"{'speed': 5.66, 'deg': 250}",US,1674098144
362,muros,42.7762,-9.0603,277.64,96,{'all': 78},"{'speed': 5.22, 'deg': 302, 'gust': 7.19}",ES,1674098144
363,talaya,61.3833,152.75,242.32,90,{'all': 100},"{'speed': 3.16, 'deg': 347, 'gust': 4.95}",RU,1674098145
364,alexandria,31.2156,29.9553,286.33,81,{'all': 0},"{'speed': 3.79, 'deg': 101, 'gust': 5.86}",EG,1674098145
365,deputatskiy,69.3,139.9,237.26,100,{'all': 98},"{'speed': 0.6, 'deg': 266, 'gust': 1}",RU,1674097998
366,sorland,67.667,12.6934,275.07,92,{'all': 100},"{'speed': 5.86, 'deg': 175, 'gust': 6.22}",NO,1674098146
367,tigil,57.8,158.6667,257.4,93,{'all': 99},"{'speed': 1.77, 'deg': 0, 'gust': 5.43}",RU,1674098146
368,mayor pablo lagerenza,-19.9309,-60.7718,297.39,75,{'all': 13},"{'speed': 1.75, 'deg': 19, 'gust': 2.5}",PY,1674098146
369,bredasdorp,-34.5322,20.0403,292.53,88,{'all': 6},"{'speed': 2.72, 'deg': 280, 'gust': 4.67}",ZA,1674097975
370,preobrazheniye,42.9019,133.9064,269.33,90,{'all': 100},"{'speed': 0.55, 'deg': 275, 'gust': 2.51}",RU,1674098147
371,madarounfa,13.3087,7.156,290.37,24,{'all': 0},"{'speed': 4.13, 'deg': 76, 'gust': 6.88}",NE,1674098147
372,kodiak,57.79,-152.4072,270.88,93,{'all': 100},"{'speed': 2.57, 'deg': 230}",US,1674098035
373,chibuto,-24.6867,33.5306,295.72,92,{'all': 77},"{'speed': 2, 'deg': 28, 'gust': 6.81}",MZ,1674098148
374,maturin,9.75,-63.1767,293.38,94,{'all': 76},"{'speed': 2.2, 'deg': 53, 'gust': 6.57}",VE,1674098149
375,kruisfontein,-34.0033,24.7314,294.75,91,{'all': 67},"{'speed': 4.88, 'deg': 251, 'gust': 8.97}",ZA,1674098149
376,kokopo,-4.352,152.2633,302.89,65,{'all': 73},"{'speed': 5.92, 'deg': 321, 'gust': 7.32}",PG,1674098149
377,sioux lookout,50.1001,-91.917,260.29,96,{'all': 98},"{'speed': 2.84, 'deg': 101, 'gust': 10.02}",CA,1674098119
378,novoagansk,61.9449,76.6625,256.8,97,{'all': 93},"{'speed': 3.4, 'deg': 296, 'gust': 7.89}",RU,1674098150
379,yelovo,57.0538,54.9207,255.49,88,{'all': 100},"{'speed': 2.37, 'deg': 176, 'gust': 2.2}",RU,1674098151
380,shiraz,29.6036,52.5388,272.84,93,{'all': 20},"{'speed': 0, 'deg': 0}",IR,1674098151
381,hit,33.6416,42.8251,283.99,78,{'all': 0},"{'speed': 4.08, 'deg': 311, 'gust': 5.27}",IQ,1674098087
382,axim,4.8699,-2.2405,298.82,87,{'all': 98},"{'speed': 2.43, 'deg': 188, 'gust': 2.91}",GH,1674098152
383,ushtobe,45.2514,77.9838,254.75,91,{'all': 5},"{'speed': 1.53, 'deg': 82, 'gust': 1.74}",KZ,1674098152
384,ayan,56.45,138.1667,241.38,63,{'all': 1},"{'speed': 3.32, 'deg': 299, 'gust': 4.5}",RU,1674098153
385,santa cruz,-17.8,-63.1667,296.85,94,{'all': 75},"{'speed': 2.06, 'deg': 20}",BO,1674097986
386,te anau,-45.4167,167.7167,298.91,29,{'all': 48},"{'speed': 3.17, 'deg': 330, 'gust': 5.15}",NZ,1674098153
387,wanning,18.8003,110.3967,292.06,72,{'all': 97},"{'speed': 5.69, 'deg': 13, 'gust': 6.92}",CN,1674098154
388,alakurtti,66.9672,30.3491,271.73,94,{'all': 100},"{'speed': 2.3, 'deg': 150, 'gust': 5.94}",RU,1674098154
389,boden,65.8252,21.6886,273.15,96,{'all': 96},"{'speed': 3.78, 'deg': 168, 'gust': 9.08}",SE,1674098155
390,mozhaysk,55.5019,36.0272,274.93,97,{'all': 100},"{'speed': 7.94, 'deg': 173, 'gust': 17.35}",RU,1674098155
391,aiken,33.5835,-81.5998,288.89,98,{'all': 100},"{'speed': 2.57, 'deg': 140}",US,1674098155
392,vestmannaeyjar,63.4427,-20.2734,269.57,69,{'all': 26},"{'speed': 6.2, 'deg': 354, 'gust': 6.57}",IS,1674098156
393,hun,29.1268,15.9477,285.53,27,{'all': 0},"{'speed': 3.84, 'deg': 173, 'gust': 5.96}",LY,1674098156
394,sola,-13.8833,167.55,299.11,85,{'all': 100},"{'speed': 13.55, 'deg': 297, 'gust': 16.24}",VU,1674098157
395,asau,46.4333,26.4,278.86,85,{'all': 29},"{'speed': 1.85, 'deg': 210, 'gust': 1.85}",RO,1674098157
396,avera,33.194,-82.5271,290.58,90,{'all': 100},"{'speed': 4.07, 'deg': 177, 'gust': 12.05}",US,1674098158
397,capalnita,46.3667,25.5167,275.85,90,{'all': 10},"{'speed': 2.15, 'deg': 101, 'gust': 1.99}",RO,1674098158
398,kununurra,-15.7667,128.7333,303.14,74,{'all': 40},"{'speed': 2.57, 'deg': 240}",AU,1674098159
399,chumikan,54.7183,135.315,242.52,72,{'all': 68},"{'speed': 3.88, 'deg': 258, 'gust': 5.27}",RU,1674098159
400,perelyub,51.8667,50.3667,260.24,85,{'all': 5},"{'speed': 4.01, 'deg': 122, 'gust': 8.84}",RU,1674098159
401,okhotsk,59.3833,143.3,249.92,81,{'all': 94},"{'speed': 5.49, 'deg': 335, 'gust': 9.07}",RU,1674098160
402,nigde,37.8333,34.75,273.86,62,{'all': 0},"{'speed': 1.32, 'deg': 97, 'gust': 1.37}",TR,1674098161
403,palmer,42.1584,-72.3287,279.55,77,{'all': 75},"{'speed': 4.12, 'deg': 300}",US,1674098015
404,kotovo,50.3211,44.8012,263.93,92,{'all': 9},"{'speed': 4.13, 'deg': 124, 'gust': 10.72}",RU,1674097943
405,banda aceh,5.5577,95.3222,300.36,71,{'all': 100},"{'speed': 5.19, 'deg': 78, 'gust': 6.9}",ID,1674098161
406,jalu,29.0331,21.5482,285.5,44,{'all': 67},"{'speed': 4.95, 'deg': 154, 'gust': 8.16}",LY,1674098162
407,ternate,0.8,127.4,301.95,70,{'all': 79},"{'speed': 3.14, 'deg': 340, 'gust': 3.42}",ID,1674098162
408,tezu,27.9167,96.1667,291.45,22,{'all': 0},"{'speed': 0.98, 'deg': 206, 'gust': 1.04}",IN,1674097926
409,kasane,-17.8167,25.15,294.2,100,{'all': 40},"{'speed': 3.09, 'deg': 100}",BW,1674098163
410,galle,6.0367,80.217,296.62,71,{'all': 95},"{'speed': 2.29, 'deg': 57, 'gust': 3.3}",LK,1674098164
411,nuevo progreso,23.1667,-97.95,293.97,79,{'all': 79},"{'speed': 2.34, 'deg': 5, 'gust': 3.44}",MX,1674098164
412,comarapa,-17.9,-64.4833,285.68,96,{'all': 94},"{'speed': 0.59, 'deg': 110, 'gust': 1.13}",BO,1674098165
413,coamo,18.08,-66.3579,295.64,97,{'all': 0},"{'speed': 2.61, 'deg': 8, 'gust': 3.07}",PR,1674098165
414,lewistown,40.5992,-77.5714,279.11,87,{'all': 100},"{'speed': 0, 'deg': 0}",US,1674098166
415,pogar,52.554,33.2591,278.44,96,{'all': 100},"{'speed': 5.08, 'deg': 186, 'gust': 11.96}",RU,1674098166
416,leningradskiy,69.3833,178.4167,243.67,98,{'all': 100},"{'speed': 10.31, 'deg': 304, 'gust': 15.6}",RU,1674098167
417,north bend,43.4065,-124.2243,279.22,96,{'all': 100},"{'speed': 2.06, 'deg': 90}",US,1674098125
418,novokayakent,42.3937,47.9861,277.37,76,{'all': 6},"{'speed': 2.26, 'deg': 186, 'gust': 2.71}",RU,1674098167
419,khon kaen,16.5,102.0833,296.13,49,{'all': 12},"{'speed': 1.86, 'deg': 44, 'gust': 2.11}",TH,1674098168
420,biograd na moru,43.9433,15.4519,281.9,91,{'all': 100},"{'speed': 2.7, 'deg': 50, 'gust': 3.37}",HR,1674098168
421,thunder bay,48.4001,-89.3168,261.82,95,{'all': 87},"{'speed': 3.48, 'deg': 34, 'gust': 9.15}",CA,1674097919
422,camacha,33.0833,-16.3333,286.83,72,{'all': 40},"{'speed': 6.17, 'deg': 30}",PT,1674098083
423,kenai,60.5544,-151.2583,267.67,89,{'all': 100},"{'speed': 3.09, 'deg': 50}",US,1674098169
424,sabha,27.0377,14.4283,284.78,26,{'all': 0},"{'speed': 5.82, 'deg': 182, 'gust': 9.12}",LY,1674098169
425,byron bay,-28.65,153.6167,303.67,54,{'all': 0},"{'speed': 5.63, 'deg': 46, 'gust': 5.08}",AU,1674097615
426,pangnirtung,66.1451,-65.7125,245.61,63,{'all': 2},"{'speed': 2.68, 'deg': 38, 'gust': 2.31}",CA,1674098170
427,suntar,62.1444,117.6319,224.05,98,{'all': 94},"{'speed': 0.34, 'deg': 185, 'gust': 0.46}",RU,1674098171
428,sunland park,31.7965,-106.58,281.4,51,{'all': 0},"{'speed': 4.12, 'deg': 280, 'gust': 9.77}",US,1674098171
429,zyryanka,65.75,150.85,243.77,96,{'all': 100},"{'speed': 5.42, 'deg': 338, 'gust': 9.11}",RU,1674098172
430,sisimiut,66.9395,-53.6735,253.26,63,{'all': 100},"{'speed': 4.8, 'deg': 49, 'gust': 5.05}",GL,1674098172
431,simplicio mendes,-7.8539,-41.9103,294.22,89,{'all': 100},"{'speed': 0.33, 'deg': 220, 'gust': 0.82}",BR,1674098173
432,ponta delgada,37.7333,-25.6667,282.55,81,{'all': 20},"{'speed': 3.09, 'deg': 10}",PT,1674098003
433,kurumkan,54.3,110.3,244.31,85,{'all': 50},"{'speed': 0.49, 'deg': 271, 'gust': 1.44}",RU,1674098173
434,rio cuarto,-33.1307,-64.3499,297.02,73,{'all': 0},"{'speed': 2.57, 'deg': 360}",AR,1674098174
435,mehriz,31.5917,54.4318,270.43,76,{'all': 2},"{'speed': 1.7, 'deg': 250, 'gust': 1.63}",IR,1674098174
436,roald,62.5833,6.1333,276.67,70,{'all': 100},"{'speed': 4.63, 'deg': 190}",NO,1674098175
437,tuatapere,-46.1333,167.6833,296.27,49,{'all': 43},"{'speed': 3.62, 'deg': 206, 'gust': 4.7}",NZ,1674098023
438,katherine,-14.4667,132.2667,304.33,62,{'all': 75},"{'speed': 3.6, 'deg': 210}",AU,1674098175
439,nome,64.5011,-165.4064,250.19,70,{'all': 0},"{'speed': 1.54, 'deg': 320}",US,1674097979
440,portland,45.5234,-122.6762,279.12,93,{'all': 75},"{'speed': 3.13, 'deg': 228, 'gust': 5.36}",US,1674097881
441,laurel,39.0993,-76.8483,280.85,78,{'all': 0},"{'speed': 1.54, 'deg': 0}",US,1674098176
442,whitianga,-36.8333,175.7,294.8,74,{'all': 73},"{'speed': 1.06, 'deg': 310, 'gust': 2}",NZ,1674098177
443,jacmel,18.2342,-72.5347,295.06,78,{'all': 0},"{'speed': 0.59, 'deg': 90, 'gust': 1.6}",HT,1674098177
444,sao joao da barra,-21.6403,-41.0511,296.76,89,{'all': 0},"{'speed': 3.91, 'deg': 55, 'gust': 6.72}",BR,1674098178
445,naryan-mar,67.6713,53.087,260.58,96,{'all': 99},"{'speed': 4.17, 'deg': 165, 'gust': 9.39}",RU,1674098178
446,chontalpa,17.7,-93.5167,294.53,82,{'all': 31},"{'speed': 2.37, 'deg': 137, 'gust': 2.62}",MX,1674098178
447,todos santos,23.45,-110.2167,291.85,78,{'all': 16},"{'speed': 2.77, 'deg': 41, 'gust': 3.21}",MX,1674098179
448,honiara,-9.4333,159.95,301.57,75,{'all': 100},"{'speed': 1.78, 'deg': 311, 'gust': 3.18}",SB,1674098180
449,verkh-suetka,53.3,80.05,255.88,94,{'all': 83},"{'speed': 3.55, 'deg': 252, 'gust': 7.76}",RU,1674098180
450,manakara,-22.1333,48.0167,297.18,84,{'all': 100},"{'speed': 4.1, 'deg': 118, 'gust': 6.84}",MG,1674098181
451,marienburg,54.0359,19.0266,275.95,85,{'all': 100},"{'speed': 2.03, 'deg': 224, 'gust': 2.09}",PL,1674098181
452,beloha,-25.1667,45.05,294.21,84,{'all': 5},"{'speed': 2.79, 'deg': 87, 'gust': 7.58}",MG,1674098182
453,kattivakkam,13.2167,80.3167,298.2,65,{'all': 65},"{'speed': 1.43, 'deg': 23, 'gust': 2.34}",IN,1674098182
454,dawei,14.0833,98.2,301.21,44,{'all': 85},"{'speed': 2.35, 'deg': 63, 'gust': 4.13}",MM,1674098014
455,tongliao,43.6125,122.2653,265.1,43,{'all': 44},"{'speed': 1.91, 'deg': 346, 'gust': 2.46}",CN,1674098183
456,mwingi,-0.9344,38.0601,289.56,65,{'all': 100},"{'speed': 0.67, 'deg': 256, 'gust': 0.69}",KE,1674098184
457,inhambane,-23.865,35.3833,298.21,88,{'all': 31},"{'speed': 1.74, 'deg': 58, 'gust': 2.13}",MZ,1674098037
458,manzanillo,20.3433,-77.1167,293.39,74,{'all': 5},"{'speed': 2.83, 'deg': 78, 'gust': 5.63}",CU,1674098184
459,oranjemund,-28.55,16.4333,290.69,97,{'all': 14},"{'speed': 2.36, 'deg': 155, 'gust': 3.21}",NA,1674098185
460,flinders,-34.5833,150.8552,292.62,74,{'all': 100},"{'speed': 6.66, 'deg': 190, 'gust': 10.51}",AU,1674098034
461,jinchang,38.4953,102.1739,266.93,32,{'all': 3},"{'speed': 2.57, 'deg': 272, 'gust': 4.8}",CN,1674098100
462,olafsvik,64.8945,-23.7142,270.43,75,{'all': 99},"{'speed': 7.28, 'deg': 54, 'gust': 8.17}",IS,1674098186
463,vao,-22.6667,167.4833,297.45,70,{'all': 75},"{'speed': 10.63, 'deg': 149, 'gust': 10.92}",NC,1674098186
464,albury,-36.0833,146.9167,298.89,94,{'all': 0},"{'speed': 3.58, 'deg': 133, 'gust': 6.26}",AU,1674098187
465,soluno-dmitriyevskoye,44.4031,42.7278,272.9,97,{'all': 75},"{'speed': 2.57, 'deg': 115, 'gust': 4.05}",RU,1674098187
466,ekhabi,53.5102,142.9671,243.36,89,{'all': 33},"{'speed': 4.51, 'deg': 291, 'gust': 8.54}",RU,1674098188
467,howard springs,-12.497,131.047,301.47,83,{'all': 100},"{'speed': 4.51, 'deg': 253, 'gust': 8.6}",AU,1674098188
468,isangel,-19.55,169.2667,299.21,94,{'all': 100},"{'speed': 9.77, 'deg': 180}",VU,1674098189
469,dudinka,69.4058,86.1778,238.2,89,{'all': 96},"{'speed': 2.09, 'deg': 72, 'gust': 1.98}",RU,1674098189
470,sambava,-14.2667,50.1667,297.85,92,{'all': 100},"{'speed': 13.51, 'deg': 35, 'gust': 21.67}",MG,1674098137
471,port hedland,-20.3167,118.5667,299.18,94,{'all': 40},"{'speed': 5.66, 'deg': 170}",AU,1674098190
472,jerantut,3.936,102.3626,298.06,80,{'all': 99},"{'speed': 1.49, 'deg': 336, 'gust': 3.07}",MY,1674098190
473,kungurtug,50.5994,97.5228,248.05,90,{'all': 99},"{'speed': 0.82, 'deg': 131, 'gust': 1.61}",RU,1674098191
474,shingu,33.7333,135.9833,283.82,40,{'all': 0},"{'speed': 1.24, 'deg': 165, 'gust': 2.22}",JP,1674097899
475,la tuque,47.4334,-72.7824,273.29,69,{'all': 100},"{'speed': 3.6, 'deg': 320}",CA,1674098191
476,santa vitoria,-18.8386,-50.1214,295.19,82,{'all': 0},"{'speed': 1.31, 'deg': 118, 'gust': 1.41}",BR,1674098192
477,westport,41.1415,-73.3579,280.9,71,{'all': 0},"{'speed': 4.12, 'deg': 330}",US,1674097961
478,salta,-24.7859,-65.4117,294.03,74,{'all': 40},"{'speed': 0, 'deg': 0}",AR,1674098192
479,meulaboh,4.1363,96.1285,299.7,65,{'all': 92},"{'speed': 0.64, 'deg': 25, 'gust': 0.81}",ID,1674098193
480,matabungkay,13.9523,120.6198,301.06,68,{'all': 26},"{'speed': 8.82, 'deg': 71, 'gust': 12.55}",PH,1674098193
481,banyo,6.75,11.8167,291.39,33,{'all': 100},"{'speed': 1.31, 'deg': 327, 'gust': 1.3}",CM,1674098056
482,changli,39.7042,119.1506,273.96,30,{'all': 5},"{'speed': 3.88, 'deg': 267, 'gust': 6.28}",CN,1674098194
483,juigalpa,12.1063,-85.3645,295.27,87,{'all': 11},"{'speed': 2.65, 'deg': 58, 'gust': 3.23}",NI,1674098194
484,yuancheng,36.652,107.7896,268.58,32,{'all': 0},"{'speed': 9.97, 'deg': 307, 'gust': 17.35}",CN,1674098195
485,tiznit,29.5833,-9.5,283.71,70,{'all': 0},"{'speed': 1.6, 'deg': 172, 'gust': 1.71}",MA,1674098195
486,punta alta,-38.8759,-62.0736,295.12,71,{'all': 15},"{'speed': 4.41, 'deg': 59, 'gust': 8}",AR,1674098195
487,boulder,40.0833,-105.3505,268.02,84,{'all': 40},"{'speed': 1.54, 'deg': 250}",US,1674098186
488,bac lieu,9.285,105.7244,298.03,71,{'all': 100},"{'speed': 2.92, 'deg': 330, 'gust': 2.99}",VN,1674098196
489,atar,20.5169,-13.0499,289.9,39,{'all': 0},"{'speed': 3.93, 'deg': 43, 'gust': 4.3}",MR,1674098197
490,santa rosa,14.3122,121.1114,302.65,69,{'all': 67},"{'speed': 6.83, 'deg': 67, 'gust': 11.79}",PH,1674098197
491,tazovskiy,67.4667,78.7,249.35,97,{'all': 100},"{'speed': 4.23, 'deg': 124, 'gust': 7.01}",RU,1674098198
492,shu,43.5983,73.7614,255.91,91,{'all': 6},"{'speed': 2.62, 'deg': 162, 'gust': 2.78}",KZ,1674098198
493,ewa beach,21.3156,-158.0072,301.12,61,{'all': 0},"{'speed': 3.6, 'deg': 130}",US,1674098198
494,hami,42.8,93.45,263.96,49,{'all': 0},"{'speed': 3.37, 'deg': 96, 'gust': 4.38}",CN,1674098199
495,mackenzie,55.2999,-123.1698,269.4,95,{'all': 100},"{'speed': 1.79, 'deg': 180, 'gust': 3.46}",CA,1674098126
496,forbes,-33.3833,148.0167,298.9,27,{'all': 10},"{'speed': 4.07, 'deg': 249, 'gust': 4.1}",AU,1674098200
497,point fortin,10.1833,-61.6833,296.98,80,{'all': 94},"{'speed': 5.24, 'deg': 66, 'gust': 7.76}",TT,1674098200
498,cienfuegos,22.1461,-80.4356,292.7,79,{'all': 23},"{'speed': 2.49, 'deg': 69, 'gust': 4.88}",CU,1674098201
499,belaya gora,68.5333,146.4167,235.75,100,{'all': 98},"{'speed': 1.82, 'deg': 330, 'gust': 1.82}",RU,1674098201
500,rio grande,-32.035,-52.0986,296.29,69,{'all': 100},"{'speed': 6.15, 'deg': 79, 'gust': 7.53}",BR,1674098202
501,onega,63.9061,38.1404,273.23,98,{'all': 100},"{'speed': 6.63, 'deg': 131, 'gust': 15.48}",RU,1674098202
502,smidovich,48.6,133.8167,254.93,95,{'all': 100},"{'speed': 6.15, 'deg': 68, 'gust': 8.18}",RU,1674098202
503,ancud,-41.8697,-73.8203,286.02,84,{'all': 7},"{'speed': 0.59, 'deg': 90, 'gust': 1.48}",CL,1674098203
504,ust-maya,60.4167,134.5333,230.88,90,{'all': 100},"{'speed': 0.87, 'deg': 227, 'gust': 1.14}",RU,1674098203
505,tadine,-21.55,167.8833,298.03,77,{'all': 95},"{'speed': 8.84, 'deg': 157, 'gust': 10.46}",NC,1674098204
506,berlevag,70.8578,29.0864,273.12,80,{'all': 100},"{'speed': 8.75, 'deg': 200}",NO,1674098204
507,mathathane,-22.2687,28.7495,296.06,59,{'all': 93},"{'speed': 2.95, 'deg': 84, 'gust': 3.13}",BW,1674098205
508,lamar,33.6668,-95.5836,287.24,55,{'all': 0},"{'speed': 2.57, 'deg': 250}",US,1674098205
509,puksoozero,62.5903,40.6066,273.99,94,{'all': 100},"{'speed': 5.83, 'deg': 155, 'gust': 17.88}",RU,1674098206
510,talnakh,69.4865,88.3972,239.41,80,{'all': 82},"{'speed': 1.47, 'deg': 103, 'gust': 1.42}",RU,1674098029
511,hovd,48.0056,91.6419,258.59,64,{'all': 100},"{'speed': 0.56, 'deg': 38, 'gust': 0.65}",MN,1674098206
512,miyako,39.6367,141.9525,275.23,48,{'all': 2},"{'speed': 1.89, 'deg': 100, 'gust': 2.35}",JP,1674098207
513,ramsgate,51.3358,1.4155,275.18,84,{'all': 9},"{'speed': 1.34, 'deg': 56, 'gust': 3.58}",GB,1674098207
514,itarema,-2.9248,-39.9167,298.07,85,{'all': 100},"{'speed': 4.07, 'deg': 94, 'gust': 6.02}",BR,1674098208
515,fare,-16.7,-151.0167,300.7,69,{'all': 4},"{'speed': 6.03, 'deg': 75, 'gust': 6.83}",PF,1674098065
516,koungou,-12.7336,45.2042,301.99,74,{'all': 100},"{'speed': 6.69, 'deg': 240}",YT,1674098208
517,weymouth,42.2209,-70.9398,279.42,76,{'all': 20},"{'speed': 5.14, 'deg': 280}",US,1674098209
518,yerbogachen,61.2767,108.0108,235.23,96,{'all': 100},"{'speed': 0.86, 'deg': 161, 'gust': 1.43}",RU,1674098209
519,havoysund,70.9963,24.6622,273.28,75,{'all': 100},"{'speed': 9.16, 'deg': 163, 'gust': 15.56}",NO,1674098209
520,henties bay,-22.116,14.2845,291.84,89,{'all': 44},"{'speed': 1.89, 'deg': 176, 'gust': 2.23}",NA,1674098210
521,jimenez,28.3333,-105.4,284.46,16,{'all': 40},"{'speed': 4.04, 'deg': 353, 'gust': 6.56}",MX,1674098210
522,bandarbeyla,9.4942,50.8122,296.57,74,{'all': 38},"{'speed': 7.98, 'deg': 24, 'gust': 10.69}",SO,1674098211
523,oussouye,12.485,-16.5469,296.1,25,{'all': 0},"{'speed': 2.97, 'deg': 43, 'gust': 3.96}",SN,1674098211
524,san policarpo,12.1791,125.5072,300.3,85,{'all': 92},"{'speed': 5.76, 'deg': 47, 'gust': 7.69}",PH,1674098212
525,brae,60.3964,-1.353,277.03,76,{'all': 100},"{'speed': 11.17, 'deg': 261, 'gust': 13.8}",GB,1674098212
526,peniche,39.3558,-9.3811,279.42,60,{'all': 75},"{'speed': 7.13, 'deg': 343, 'gust': 8.68}",PT,1674098046
527,ukiah,39.1502,-123.2078,281.17,94,{'all': 100},"{'speed': 0.89, 'deg': 73, 'gust': 2.68}",US,1674098213
528,kurilsk,45.2333,147.8833,267.69,61,{'all': 100},"{'speed': 7.1, 'deg': 327, 'gust': 7.81}",RU,1674098213
529,pitimbu,-7.4706,-34.8086,297.48,82,{'all': 27},"{'speed': 4.5, 'deg': 120, 'gust': 6.14}",BR,1674098214
530,shagonar,51.5333,92.8,254.74,97,{'all': 100},"{'speed': 0.63, 'deg': 128, 'gust': 0.96}",RU,1674098214
531,pampierstad,-27.7832,24.6877,297.0,42,{'all': 50},"{'speed': 1.81, 'deg': 244, 'gust': 3.65}",ZA,1674098214
532,saint george,37.1041,-113.5841,277.73,61,{'all': 0},"{'speed': 2.06, 'deg': 150}",US,1674098215
533,sibiti,-3.6819,13.3499,293.71,97,{'all': 98},"{'speed': 0.43, 'deg': 348, 'gust': 0.65}",CG,1674098216
534,tay ninh,11.3,106.1,299.64,57,{'all': 100},"{'speed': 3.48, 'deg': 20, 'gust': 3.91}",VN,1674098216
